City_ID,City,Lat,Lng,Max Temp,Humidity,Cloudiness,Wind Speed,Country,Date
0,cabinda,-5.55,12.2,300.11,80,72,2.78,AO,1701335220
1,kirksville,40.1948,-92.5833,279.85,69,0,5.14,US,1701335221
2,wailua homesteads,22.0669,-159.378,296.39,87,20,2.06,US,1701335221
3,mogocha,53.7333,119.7667,256.29,95,89,1.39,RU,1701335221
4,fort st. john,56.2499,-120.8529,263.74,98,60,0.55,CA,1701335221
5,tangalle,6.024,80.7911,300.88,80,31,3.11,LK,1701335221
6,zolochiv,49.806,24.8944,270.46,81,59,4.39,UA,1701335221
7,vorgashor,67.5833,63.95,255.85,97,15,2.18,RU,1701335222
8,puerto natales,-51.7236,-72.4875,276.28,78,68,6.94,CL,1701335222
9,lompoc,34.6391,-120.4579,286.92,88,0,1.54,US,1701335011
10,hadibu,12.65,54.0333,300.74,59,15,7.03,YE,1701335222
11,puerto baquerizo moreno,-0.9,-89.6,297.0,79,31,3.48,EC,1701335222
12,akureyri,65.6835,-18.0878,271.45,98,100,1.61,IS,1701335222
13,waitangi,-43.9535,-176.5597,284.16,84,79,4.92,NZ,1701335223
14,fushun,41.8558,123.9233,265.99,84,73,1.77,CN,1701335223
15,edinburgh of the seven seas,-37.0676,-12.3116,285.37,67,83,9.69,SH,1701335223
16,petropavlovsk-kamchatsky,53.0452,158.6483,264.51,65,100,3.58,RU,1701335223
17,whitehorse,60.7161,-135.0538,263.88,72,100,6.71,CA,1701335223
18,dauphin,51.1494,-100.0502,268.42,90,33,3.83,CA,1701335223
19,port-aux-francais,-49.35,70.2167,275.58,83,76,20.43,TF,1701335224
20,longyearbyen,78.2186,15.6401,268.06,80,75,7.72,SJ,1701335104
21,yellowknife,62.456,-114.3525,255.68,91,92,1.79,CA,1701335210
22,stanley,54.868,-1.6985,273.02,93,20,2.57,GB,1701335224
23,west island,-12.1568,96.8225,301.14,65,25,5.14,CC,1701335225
24,ust-nera,64.5667,143.2,248.92,98,100,2.89,RU,1701335225
25,anadyr,64.75,177.4833,270.43,86,40,10.0,RU,1701335225
26,kaitong,44.8135,123.15,261.76,82,0,3.34,CN,1701335225
27,petauke,-14.2426,31.3253,304.09,36,94,1.76,ZM,1701335225
28,monroe,43.1501,-77.6831,275.88,72,100,4.63,US,1701335225
29,chojnow,51.2737,15.9366,270.94,90,99,1.22,PL,1701335226
30,papatowai,-46.5619,169.4708,280.52,87,37,2.81,NZ,1701335226
31,iqaluit,63.7506,-68.5145,269.65,63,100,8.94,CA,1701335226
32,kenora,49.8167,-94.4337,270.25,92,94,4.02,CA,1701335226
33,adamstown,-25.066,-130.1015,294.28,77,100,3.79,PN,1701335226
34,port mathurin,-19.6833,63.4167,298.51,69,0,5.61,MU,1701335226
35,invercargill,-46.4,168.35,282.08,74,65,1.32,NZ,1701335227
36,udachny,66.4167,112.4,258.1,89,100,7.56,RU,1701335227
37,albany,42.6001,-73.9662,272.34,66,27,1.79,US,1701334743
38,east london,-33.0153,27.9116,295.37,49,31,8.46,ZA,1701335227
39,aykhal,66.0,111.5,259.42,94,100,9.61,RU,1701335227
40,viedma,-40.8135,-62.9967,289.39,51,0,4.45,AR,1701335227
41,georgetown,5.4112,100.3354,305.11,70,20,3.09,MY,1701335228
42,ushuaia,-54.8,-68.3,276.94,100,100,2.07,AR,1701335228
43,bethel,41.3712,-73.414,274.01,62,10,2.01,US,1701335228
44,tiksi,71.6872,128.8694,247.0,94,100,11.19,RU,1701335228
45,seven pagodas,12.6264,80.1722,300.18,74,98,3.79,IN,1701335228
46,nanga eboko,4.6833,12.3667,301.69,60,42,0.59,CM,1701335228
47,novodvinsk,64.4165,40.8122,266.01,98,66,2.02,RU,1701335229
48,bilibino,68.0546,166.4372,240.07,97,62,1.4,RU,1701335229
49,kenai,60.5544,-151.2583,274.9,87,100,6.69,US,1701335229
50,ribeira grande,38.5167,-28.7,288.02,67,40,9.26,PT,1701335229
51,isafjordur,66.0755,-23.124,275.17,80,75,7.72,IS,1701335229
52,hilo,19.7297,-155.09,297.18,99,75,4.63,US,1701335112
53,aasiaat,68.7098,-52.8699,270.55,84,100,3.41,GL,1701335230
54,carutapera,-1.195,-46.02,301.23,72,31,6.13,BR,1701335034
55,potosi,-19.5836,-65.7531,281.47,77,87,2.04,BO,1701335084
56,hithadhoo,-0.6,73.0833,301.32,77,87,6.75,MV,1701335230
57,blackmans bay,-43.0167,147.3167,286.89,73,96,0.45,AU,1701335230
58,lerwick,60.1545,-1.1494,277.15,64,69,7.1,GB,1701335231
59,merizo village,13.2658,144.6691,301.46,91,16,7.87,GU,1701335231
60,pizarro,4.9533,-77.366,297.04,92,92,2.38,CO,1701335231
61,neryungri,56.6709,124.6491,258.8,87,100,5.31,RU,1701335231
62,saipan,15.1355,145.701,300.54,89,100,5.66,MP,1701335231
63,college,64.8569,-147.8028,262.14,92,0,0.0,US,1701335231
64,kerikeri,-35.2268,173.9474,288.1,78,99,2.27,NZ,1701335231
65,chibougamau,49.9168,-74.3659,269.94,86,100,6.17,CA,1701335232
66,antonio enes,-16.2325,39.9086,303.9,61,63,5.69,MZ,1701335232
67,horta,38.5333,-28.6333,287.6,68,40,9.26,PT,1701335232
68,nova sintra,14.8667,-24.7167,294.81,76,100,2.98,CV,1701335232
69,olonkinbyen,70.9221,-8.7187,271.77,87,85,6.85,SJ,1701335232
70,ancud,-41.8697,-73.8203,284.22,92,100,5.01,CL,1701335232
71,remire-montjoly,4.9167,-52.2667,296.17,100,75,0.51,GF,1701335232
72,sept-iles,50.2001,-66.3821,265.15,77,100,2.57,CA,1701335154
73,san patricio,28.017,-97.5169,294.12,94,100,5.85,US,1701335233
74,ilulissat,69.2167,-51.1,278.16,48,75,9.77,GL,1701335233
75,sisimiut,66.9395,-53.6735,273.07,95,100,3.92,GL,1701335233
76,vadso,70.0744,29.7487,273.64,93,100,11.32,NO,1701335006
77,yeppoon,-23.1333,150.7333,306.03,71,7,4.98,AU,1701335233
78,grytviken,-54.2811,-36.5092,276.59,91,100,5.34,GS,1701335234
79,santa cruz,-17.8,-63.1667,297.85,88,40,6.17,BO,1701335130
80,margaret river,-33.95,115.0667,294.41,63,70,7.18,AU,1701335234
81,constantia,44.1833,28.65,276.53,70,55,1.34,RO,1701335234
82,hinatuan,8.3722,126.3342,299.45,85,100,1.59,PH,1701335234
83,cidreira,-30.1811,-50.2056,293.71,93,7,2.89,BR,1701335234
84,san mariano,7.5,126.0,297.51,94,100,0.5,PH,1701335234
85,hamilton,39.1834,-84.5333,276.99,81,40,5.14,US,1701335143
86,sahibganj,25.25,87.65,302.48,38,0,2.44,IN,1701335235
87,shimoda,34.6667,138.95,283.21,56,1,10.24,JP,1701335235
88,talnakh,69.4865,88.3972,252.58,99,89,2.16,RU,1701335235
89,barcelos,41.5388,-8.6151,284.77,96,100,2.65,PT,1701335235
90,saudarkrokur,65.7461,-19.6394,273.29,84,65,3.7,IS,1701335235
91,hawaiian paradise park,19.5933,-154.9731,297.06,98,75,4.63,US,1701335236
92,arhribs,36.7936,4.3116,290.81,50,51,3.3,DZ,1701335236
93,afaahiti,-17.75,-149.2833,300.08,89,100,8.98,PF,1701335236
94,as sulayyil,20.4607,45.5779,296.29,33,0,4.37,SA,1701334951
95,keflavik,64.0049,-22.5624,273.39,86,20,2.06,IS,1701335236
96,nizhniy ingash,56.2,96.53,262.56,88,100,0.99,RU,1701335236
97,la'ie,21.6477,-157.9253,297.13,87,87,3.28,US,1701335237
98,saint-pierre,-21.3393,55.4781,302.97,62,100,4.12,RE,1701335237
99,iskateley,67.6803,53.1512,263.16,96,100,3.13,RU,1701335237
100,ulanhot,46.0833,122.0833,262.32,64,6,5.85,CN,1701335237
101,kiffa,16.6166,-11.4045,299.28,12,8,3.58,MR,1701335237
102,san antonio de pale,-1.4014,5.6325,300.07,82,99,3.06,GQ,1701335237
103,enewetak,11.3474,162.3373,300.9,79,100,9.16,MH,1701335238
104,sao miguel dos campos,-9.7811,-36.0936,295.87,80,4,1.02,BR,1701334965
105,mahibadhoo,3.7833,72.9667,301.56,71,40,2.42,MV,1701335238
106,happy valley-goose bay,53.3168,-60.3315,262.91,68,88,5.17,CA,1701335238
107,fale old settlement,-9.3852,-171.2468,302.6,72,13,7.58,TK,1701335238
108,atafu village,-8.5421,-172.5159,302.57,75,14,6.88,TK,1701335238
109,yermentau,51.6214,73.1069,274.48,60,97,8.1,KZ,1701335239
110,antsiranana,-12.2787,49.2917,304.7,57,36,5.72,MG,1701335239
111,pumiao,22.75,108.4833,290.45,80,100,2.87,CN,1701335239
112,uturoa,-16.7333,-151.4333,300.27,83,100,8.91,PF,1701335239
113,tolanaro,-25.0319,46.9987,301.95,64,6,3.59,MG,1701335239
114,otaru,43.1894,141.0022,267.61,89,99,8.82,JP,1701335239
115,muroto-misakicho,33.2833,134.15,285.87,52,100,6.53,JP,1701335240
116,chegdomyn,51.1167,133.0167,250.38,95,42,1.08,RU,1701335240
117,tchintabaraden,15.8969,5.7985,303.16,13,61,5.75,NE,1701335240
118,san pedro pochutla,15.7333,-96.4667,295.97,86,99,1.87,MX,1701335240
119,corinto,37.9407,22.9573,291.98,56,4,2.58,GR,1701335240
120,dudinka,69.4058,86.1778,250.56,100,88,1.12,RU,1701335240
121,east end,34.5507,-92.341,282.51,81,69,2.82,US,1701335240
122,kodiak,57.79,-152.4072,275.88,87,100,6.17,US,1701335241
123,ilongero,-4.6667,34.8667,298.54,52,56,0.34,TZ,1701335241
124,punta arenas,-53.15,-70.9167,277.1,80,30,12.2,CL,1701335241
125,sonari,27.0667,95.0333,301.18,52,0,0.82,IN,1701335241
126,nadym,65.5333,72.5167,257.8,95,33,4.98,RU,1701335241
127,brookings,44.3114,-96.7984,273.77,77,4,1.34,US,1701334968
128,jamestown,42.097,-79.2353,274.92,86,100,6.17,US,1701335055
129,lilongwe,-13.9669,33.7873,304.35,38,80,2.2,MW,1701335242
130,tamanrasset,22.785,5.5228,295.1,12,0,2.57,DZ,1701334964
131,oneonta,42.4529,-75.0638,271.65,73,28,2.58,US,1701335242
132,vryheid,-27.7695,30.7917,294.88,30,0,2.08,ZA,1701335242
133,carnarvon,-24.8667,113.6333,297.46,63,0,9.22,AU,1701335242
134,qaqortoq,60.7167,-46.0333,274.81,52,100,11.37,GL,1701335242
135,jerantut,3.936,102.3626,301.81,88,36,1.19,MY,1701335242
136,candelaria,13.9311,121.4233,300.59,86,44,3.85,PH,1701335243
137,fort bragg,35.139,-79.006,274.16,81,0,0.0,US,1701335243
138,el calafate,-50.3408,-72.2768,277.56,68,26,6.86,AR,1701335243
139,bonthe,7.5264,-12.505,299.99,80,99,1.59,SL,1701335243
140,kota belud,6.351,116.4305,300.52,86,100,3.26,MY,1701335243
141,acapulco de juarez,16.8634,-99.8901,300.05,83,75,1.54,MX,1701334950
142,kayyerkan,69.3786,87.7439,251.75,100,94,0.59,RU,1701335243
143,palu,-0.8917,119.8707,300.73,92,71,0.93,ID,1701335244
144,kapuskasing,49.4169,-82.4331,269.03,92,97,2.97,CA,1701335244
145,quang ngai,15.1167,108.8,299.8,83,81,1.73,VN,1701335244
146,gambela,8.25,34.5833,307.51,29,93,2.12,ET,1701335244
147,tevriz,57.509,72.4042,268.97,90,100,1.42,RU,1701335244
148,saquarema,-22.92,-42.5103,298.17,85,0,1.31,BR,1701335244
149,tralee,52.2704,-9.7026,274.22,85,10,4.9,IE,1701335244
150,baie-comeau,49.2168,-68.1489,267.97,93,100,5.66,CA,1701335244
151,daru,-9.0763,143.2092,300.21,80,53,2.96,PG,1701335245
152,puerto aysen,-45.4,-72.7,283.11,100,100,2.29,CL,1701335245
153,betio village,1.358,172.9211,302.17,80,100,8.17,KI,1701335245
154,taroudant,30.4703,-8.877,291.25,37,28,0.5,MA,1701335245
155,nagqu,31.5,92.0,272.82,32,100,5.06,CN,1701335245
156,inirida,3.8653,-67.9239,296.16,91,92,0.62,CO,1701335246
157,port elizabeth,-33.918,25.5701,295.55,65,0,9.26,ZA,1701335246
158,hasaki,35.7333,140.8333,284.37,53,72,10.72,JP,1701335246
159,port blair,11.6667,92.75,302.17,74,100,3.6,IN,1701335246
160,san luis de la loma,17.2706,-100.8939,297.92,81,100,1.99,MX,1701335247
161,ta`u,-14.2336,-169.5144,300.83,82,57,8.74,AS,1701335247
162,hermanus,-34.4187,19.2345,299.42,39,52,2.17,ZA,1701335247
163,nantucket,41.2835,-70.0995,276.47,69,75,3.09,US,1701334994
164,al ghayzah,16.2079,52.176,302.72,43,14,4.07,YE,1701335247
165,black river,18.0264,-77.8487,296.61,85,45,2.25,JM,1701335247
166,pisco,-13.7,-76.2167,291.18,88,0,2.06,PE,1701335247
167,lebu,-37.6167,-73.65,284.43,93,11,6.09,CL,1701335248
168,saint-philippe,-21.3585,55.7679,302.92,76,53,3.2,RE,1701335248
169,tulum,20.2167,-87.4667,295.04,87,66,2.28,MX,1701335248
170,naracoorte,-36.9579,140.7383,292.71,57,51,2.24,AU,1701335248
171,bodaybo,57.8506,114.1933,248.29,100,87,0.81,RU,1701335248
172,tezu,27.9167,96.1667,299.35,29,0,0.78,IN,1701335248
173,mata-utu,-13.2816,-176.1745,301.65,80,96,9.36,WF,1701335249
174,bredasdorp,-34.5322,20.0403,303.6,23,66,2.88,ZA,1701335249
175,selfoss,63.9331,-20.9971,272.2,79,33,3.63,IS,1701335249
176,obo,5.3998,26.4869,300.15,69,77,2.49,CF,1701335249
177,awjilah,29.1081,21.2869,294.32,26,5,1.42,LY,1701335249
178,kiruna,67.8557,20.2251,266.66,86,100,3.09,SE,1701335249
179,susuman,62.7833,148.1667,245.82,100,100,0.73,RU,1701335249
180,new norfolk,-42.7826,147.0587,287.55,85,91,1.66,AU,1701335250
181,buala,-8.145,159.5921,300.65,83,100,1.38,SB,1701335250
182,sao vicente,-23.9631,-46.3919,298.3,26,11,1.73,BR,1701335250
183,lijiang,26.8688,100.2207,289.28,35,0,2.3,CN,1701335250
184,neftcala,39.3742,49.2472,288.6,58,18,0.79,AZ,1701335250
185,tazovsky,67.4667,78.7,252.21,97,7,3.29,RU,1701335250
186,lihue,21.9789,-159.3672,296.73,83,20,2.06,US,1701335251
187,sitka,57.0531,-135.33,281.09,61,100,7.2,US,1701335251
188,nemuro,43.3236,145.575,271.95,47,44,7.99,JP,1701335251
189,egilsstadir,65.2653,-14.3948,272.87,98,100,3.74,IS,1701335251
190,galappo,-4.2667,35.85,298.59,54,35,3.37,TZ,1701335251
191,siwa oasis,29.2041,25.5195,292.34,35,11,0.79,EG,1701335251
192,higuera de zaragoza,25.95,-109.2833,292.87,74,0,3.18,MX,1701335252
193,vizinga,61.0749,50.1031,263.57,95,85,0.46,RU,1701335252
194,kerema,-7.9631,145.7785,300.68,82,91,1.75,PG,1701335252
195,fort mcmurray,56.7268,-111.381,270.88,74,100,3.6,CA,1701335252
196,twon-brass,4.3151,6.2418,301.29,76,81,2.09,NG,1701335252
197,farafangana,-22.8167,47.8333,301.8,72,61,3.51,MG,1701335253
198,kachug,53.9606,105.8817,262.07,97,100,0.45,RU,1701335253
199,puerto ayora,-0.7393,-90.3518,297.34,93,35,3.13,EC,1701335253
200,utrik,11.2278,169.8474,300.79,76,100,8.38,MH,1701335253
201,colchani,-20.3,-66.9333,283.69,44,86,1.17,BO,1701335253
202,cabo san lucas,22.8909,-109.9124,296.9,75,99,3.58,MX,1701335038
203,mil'kovo,55.6078,37.7956,272.88,89,100,5.29,RU,1701335253
204,saint-denis,48.9167,2.3333,276.56,90,0,3.09,FR,1701335253
205,sinop,41.7711,34.8709,284.39,71,57,1.54,TR,1701335254
206,harper,4.375,-7.7169,300.91,74,82,0.49,LR,1701335254
207,burela de cabo,43.65,-7.4,282.69,73,100,5.06,ES,1701335254
208,goz beida,13.95,20.55,307.18,13,8,6.09,TD,1701335254
209,colonia,50.9333,6.95,275.91,89,100,3.6,DE,1701335252
210,shingu,33.7333,135.9833,281.57,62,99,2.91,JP,1701335254
211,damulog,7.4836,124.9431,298.73,80,99,0.98,PH,1701335254
212,la foa,-21.7108,165.8276,297.89,75,65,1.33,NC,1701335255
213,engenheiro beltrao,-23.7972,-52.2692,294.76,97,99,0.51,BR,1701335088
214,at taraf,25.3628,49.725,295.45,16,0,6.85,SA,1701335255
215,badger,64.8,-147.5333,262.1,91,0,0.0,US,1701335255
216,floro,61.5996,5.0328,275.13,55,20,5.14,NO,1701335255
217,maralal,1.0968,36.698,294.79,46,88,3.67,KE,1701335255
218,la toma,-33.0526,-65.6238,287.53,52,1,3.63,AR,1701335256
219,alaghsas,17.0187,8.0168,303.46,10,0,6.15,NE,1701335256
220,laojunmiao,39.8333,97.7333,273.52,30,0,2.68,CN,1701335256
221,inderbor,48.55,51.7833,278.17,52,100,6.02,KZ,1701335256
222,port alfred,-33.5906,26.891,294.36,72,79,4.47,ZA,1701335256
223,weno,7.4515,151.8468,302.12,74,40,3.6,FM,1701335256
224,pihuamo,19.2499,-103.3828,292.63,92,18,1.66,MX,1701335256
225,taulaga,-11.0553,-171.0883,302.06,78,37,8.38,AS,1701335257
226,trujillo,-8.116,-79.03,292.13,82,75,2.06,PE,1701335257
227,la cocha,-27.7773,-65.5704,292.42,97,70,0.53,AR,1701335257
228,mejit,10.2753,170.8646,300.91,75,84,9.5,MH,1701335257
229,arraial do cabo,-22.9661,-42.0278,298.07,83,75,2.06,BR,1701335257
230,funafuti,-8.5243,179.1942,302.15,84,40,5.14,TV,1701335257
231,senillosa,-39.0,-68.4167,288.45,51,0,3.19,AR,1701335257
232,kuta,-8.7233,115.1723,303.15,70,75,3.6,ID,1701335258
233,natal,-5.795,-35.2094,296.51,100,75,1.54,BR,1701335258
234,cacador,-26.7753,-51.015,290.35,99,31,0.62,BR,1701335258
235,mulayjah,27.271,48.4242,295.49,22,59,5.93,SA,1701335258
236,wacheng,33.7833,114.5167,279.27,24,100,1.41,CN,1701335258
237,straldzha,42.6,26.6833,280.17,60,89,1.1,BG,1701335258
238,poronaysk,49.2167,143.1167,262.1,85,81,5.14,RU,1701335259
239,manacapuru,-3.2997,-60.6206,297.48,92,93,0.85,BR,1701335259
240,kutulik,53.3508,102.7839,262.65,96,100,1.29,RU,1701335259
241,jinchang,38.4953,102.1739,271.94,36,0,2.52,CN,1701335259
242,trondheim,63.4305,10.3951,270.2,84,24,3.36,NO,1701335259
243,fortuna,40.5982,-124.1573,279.81,96,0,0.0,US,1701335259
244,wynyard,-41.0,145.7167,288.04,73,100,0.78,AU,1701335260
245,hammerfest,70.6634,23.6821,272.4,80,75,3.6,NO,1701335260
246,naze,28.3667,129.4833,290.66,73,94,7.98,JP,1701335156
247,ptolemaida,40.5147,21.6786,284.2,72,100,2.57,GR,1701335260
248,zag,46.9441,99.165,258.17,67,0,0.81,MN,1701335260
249,qui nhon,13.7667,109.2333,299.51,86,99,4.58,VN,1701335260
250,crane,31.3974,-102.3501,282.29,92,58,8.62,US,1701335260
251,el porvenir,13.7617,-87.3458,293.78,87,13,2.99,HN,1701335260
252,usinsk,65.9939,57.5281,265.97,91,100,2.68,RU,1701335261
253,dareda,-4.2167,35.55,296.95,59,25,3.36,TZ,1701335261
254,kayangel,8.0823,134.7173,301.85,77,100,3.81,PW,1701335261
255,batang,-6.4846,110.7083,302.69,74,100,4.74,ID,1701335261
256,kani keli,-12.9536,45.1033,303.74,72,9,4.68,YT,1701335261
257,gore,-46.1028,168.9436,279.95,90,70,0.94,NZ,1701335261
258,chonchi,-42.6128,-73.8092,283.77,91,97,2.0,CL,1701335261
259,taroa,8.7058,171.2275,301.14,76,91,8.37,MH,1701335262
260,coracora,-15.0333,-73.7833,284.48,58,99,0.42,PE,1701335262
261,igarka,67.4667,86.5833,248.03,98,18,3.22,RU,1701335113
262,castillos,-34.1667,-53.8333,292.09,95,70,1.95,UY,1701335262
263,leava,-14.3,-178.1667,301.46,80,98,9.7,WF,1701335262
264,trincomalee,8.5711,81.2335,298.94,88,100,5.29,LK,1701335262
265,port isabel,26.0734,-97.2086,292.62,92,0,2.57,US,1701335262
266,coquimbo,-29.9533,-71.3436,287.36,87,1,1.25,CL,1701335262
267,ulverstone,-41.15,146.1667,290.22,63,100,3.29,AU,1701335263
268,mar del plata,-38.0023,-57.5575,291.53,86,0,1.34,AR,1701335263
269,chake chake,-5.2459,39.7666,303.72,63,99,4.56,TZ,1701335263
270,dubbo,-32.25,148.6167,297.22,46,100,5.66,AU,1701335263
271,bom jesus,-9.0744,-44.3586,294.93,52,2,0.14,BR,1701335263
272,rio gallegos,-51.6226,-69.2181,278.56,54,30,15.05,AR,1701335263
273,fortaleza,-3.7227,-38.5247,302.08,76,40,3.6,BR,1701335025
274,mili,6.0815,171.735,300.92,81,100,8.0,MH,1701335263
275,mizdah,31.4451,12.9801,291.54,30,0,1.73,LY,1701335264
276,avarua,-21.2078,-159.775,297.18,83,20,4.63,CK,1701335264
277,vennesla,58.2694,7.9741,271.08,76,20,4.63,NO,1701335264
278,dhidhdhoo,6.8833,73.1,301.49,73,72,1.19,MV,1701335264
279,nuuk,64.1835,-51.7216,281.49,31,75,6.17,GL,1701335264
280,tofol,5.3248,163.0078,300.83,78,100,6.26,FM,1701335264
281,mount pearl,47.5166,-52.7813,270.9,94,75,4.63,CA,1701335264
282,maintirano,-18.0667,44.0167,303.52,67,14,5.4,MG,1701335265
283,seryshevo,51.0933,128.3786,252.69,94,16,1.16,RU,1701335265
284,sinabang,2.4803,96.3801,301.34,70,98,1.39,ID,1701335265
285,kongsberg,59.6652,9.6465,270.05,99,98,0.89,NO,1701335265
286,bubaque,11.2833,-15.8333,300.94,56,29,0.59,GW,1701335265
287,raduzhny,62.0961,77.475,260.14,93,37,1.45,RU,1701335265
288,flying fish cove,-10.4217,105.6791,300.97,74,75,4.63,CX,1701335265
289,paphos,34.7667,32.4167,294.03,49,20,1.54,CY,1701335265
290,sault ste. marie,46.5168,-84.3333,272.46,93,0,2.06,CA,1701335266
291,thompson,55.7435,-97.8558,254.55,82,1,4.41,CA,1701335266
292,bamboo flat,11.7,92.7167,302.2,74,100,3.6,IN,1701335266
293,tarutyne,46.1858,29.1506,276.29,47,63,3.55,UA,1701335266
294,codrington,-38.2667,141.9667,288.17,75,94,8.55,AU,1701335266
295,callao,-12.0667,-77.15,293.55,82,100,2.57,PE,1701335102
296,baijiantan,45.6333,85.1833,278.55,28,12,3.29,CN,1701335266
297,sambava,-14.2667,50.1667,302.52,68,35,4.95,MG,1701335266
298,cuyo,10.8525,121.0086,301.54,79,10,9.61,PH,1701335267
299,aljezur,37.3191,-8.8033,291.8,91,100,8.5,PT,1701335267
300,hebi,35.8992,114.1925,276.73,27,0,2.41,CN,1701335267
301,krasnyy kut,50.95,46.9667,275.22,90,100,5.47,RU,1701335267
302,kupang,-10.1667,123.5833,306.47,62,40,5.14,ID,1701335267
303,harstad,68.799,16.5293,272.12,80,98,2.68,NO,1701335267
304,bayramaly,37.6185,62.1671,287.11,30,100,4.88,TM,1701335267
305,nikolayevsk-on-amure,53.1406,140.73,254.85,91,7,2.17,RU,1701335267
306,richards bay,-28.783,32.0377,297.52,40,25,4.71,ZA,1701335268
307,sajir,25.1825,44.5996,296.83,33,2,3.76,SA,1701335268
308,itoman,26.1247,127.6694,295.58,70,75,10.8,JP,1701335268
309,casablanca,33.5928,-7.6192,288.89,67,98,2.06,MA,1701335025
310,pontianak,-0.0333,109.3333,297.14,94,75,3.09,ID,1701335268
311,lodja,-3.4833,23.4333,299.97,68,100,0.94,CD,1701335268
312,kingscliff,-28.2667,153.5667,300.22,61,87,5.66,AU,1701335268
313,chachapoyas,-6.2317,-77.869,285.09,95,97,0.44,PE,1701335269
314,katsuura,35.1333,140.3,285.96,54,18,5.96,JP,1701335269
315,progreso,21.2833,-89.6667,294.21,78,69,4.5,MX,1701335269
316,mezokovesd,47.8167,20.5833,274.37,68,100,2.27,HU,1701335269
317,stebnyk,49.2942,23.5636,272.95,69,62,6.48,UA,1701335269
318,san juanito,28.0,-107.5833,277.72,87,30,10.41,MX,1701335269
319,rio grande,-32.035,-52.0986,293.68,93,94,1.69,BR,1701335269
320,kinablangan,7.6947,126.5503,300.11,80,100,1.63,PH,1701335269
321,masuguru,-11.3667,38.4167,310.5,30,84,2.28,TZ,1701335270
322,leninskoye,41.7589,69.3864,282.31,75,95,3.36,KZ,1701335270
323,mount isa,-20.7333,139.5,307.02,29,65,4.12,AU,1701335270
324,guerrero negro,27.9769,-114.0611,291.11,62,52,7.55,MX,1701335129
325,praia da vitoria,38.7333,-27.0667,287.46,77,22,11.04,PT,1701335270
326,xinqing,48.2333,129.5,260.91,88,100,3.12,CN,1701335270
327,dinguiraye,11.3,-10.7167,298.71,65,74,1.22,GN,1701335270
328,mpongwe,-13.5091,28.155,301.64,41,87,2.65,ZM,1701335270
329,howrah,22.5892,88.3103,303.15,51,94,3.09,IN,1701335271
330,bel ombre,-4.6167,55.4167,300.06,89,75,1.03,SC,1701335271
331,shihezi,44.3,86.0333,277.63,48,24,1.29,CN,1701335271
332,ambodifotatra,-16.9833,49.85,300.15,84,5,8.19,MG,1701335243
333,mawu,29.5923,107.3139,282.25,82,100,1.43,CN,1701335271
334,sechura,-5.5569,-80.8222,293.12,80,32,3.54,PE,1701335271
335,zhezqazghan,47.7833,67.7667,271.47,64,75,8.0,KZ,1701335271
336,wangkui,46.8333,126.5,256.76,95,91,2.46,CN,1701335272
337,salalah,17.0151,54.0924,302.2,65,20,5.14,OM,1701335272
338,kone,-21.0595,164.8658,298.59,73,95,1.33,NC,1701335272
339,santiago de cao,-7.9589,-79.2392,292.22,82,75,2.06,PE,1701335272
340,nar'yan-mar,67.6713,53.087,263.21,96,100,3.13,RU,1701335272
341,cuencame de ceniceros,24.8711,-103.6964,286.24,48,3,3.62,MX,1701335272
342,bayanaul,50.7889,75.6956,276.11,72,100,6.77,KZ,1701335272
343,chikola,43.1906,43.9209,276.62,59,100,0.26,RU,1701335273
344,tsengel,49.4783,100.8894,259.71,77,13,1.75,MN,1701335273
345,wahpeton,46.2652,-96.6059,272.55,93,0,8.75,US,1701335273
346,tagta,41.6504,59.9164,283.48,25,3,6.87,TM,1701335273
347,fisterra,42.9049,-9.2629,284.68,53,100,5.01,ES,1701335273
348,vilyuchinsk,52.9306,158.4028,265.33,77,100,4.7,RU,1701335273
349,tres lagoas,-20.7511,-51.6783,295.93,90,87,1.76,BR,1701335273
350,dilling,12.05,29.65,304.21,22,100,6.84,SD,1701335273
351,changleng,28.7,115.8167,283.28,37,100,5.92,CN,1701335274
352,nefteyugansk,61.0998,72.6035,263.13,91,50,2.68,RU,1701335274
353,viitasaari,63.0667,25.8667,261.0,96,82,2.53,FI,1701335274
354,huarmey,-10.0681,-78.1522,292.15,89,97,2.58,PE,1701335274
355,manta,-0.95,-80.7333,296.41,79,100,0.97,EC,1701335274
356,st. john's,47.5649,-52.7093,271.36,94,75,4.12,CA,1701335092
357,nikolo-berezovka,56.1242,54.1557,262.46,95,98,2.15,RU,1701335274
358,haiku-pauwela,20.9219,-156.3051,297.88,90,40,2.06,US,1701335275
359,olyokminsk,60.3736,120.4264,260.58,82,100,6.56,RU,1701335266
360,la passe,45.5549,-0.8967,280.28,90,100,0.58,FR,1701335275
361,mineiros,-17.5694,-52.5511,294.79,68,12,1.37,BR,1701335131
362,ixtapa,20.7,-105.2,294.12,87,2,1.37,MX,1701335275
363,serchhip,23.3,92.8333,299.05,34,2,1.0,IN,1701335275
364,teknaf,20.8624,92.3058,301.19,57,64,4.13,BD,1701335275
365,ardakan,32.31,54.0175,291.32,29,0,0.76,IR,1701335275
366,urengoy,65.9667,78.3667,256.73,96,23,4.36,RU,1701335275
367,khandyga,62.6667,135.6,248.37,99,100,1.19,RU,1701335269
368,vilyuysk,63.7553,121.6247,262.04,90,100,6.26,RU,1701335276
369,axim,4.8699,-2.2405,301.46,75,67,1.67,GH,1701335276
370,vila velha,-20.3297,-40.2925,299.23,78,0,5.36,BR,1701335276
371,howard springs,-12.497,131.047,306.47,69,96,4.25,AU,1701335276
372,saint-joseph,-21.3667,55.6167,302.36,77,36,0.94,RE,1701335276
373,concepcion del oro,24.6333,-101.4167,283.78,81,0,2.54,MX,1701335276
374,saint-louis,16.3333,-15.0,299.24,12,51,3.93,SN,1701335277
375,nohfelden,49.5869,7.1428,275.03,90,63,0.75,DE,1701335277
376,kindu,-2.95,25.95,294.52,99,100,0.86,CD,1701335277
377,boende,-0.2167,20.8667,299.34,74,100,0.94,CD,1701335277
378,inhambane,-23.865,35.3833,296.58,76,100,7.26,MZ,1701335277
379,kimbe,-5.5502,150.1429,299.63,88,100,1.02,PG,1701335277
380,taitung city,22.7583,121.1444,298.3,69,75,4.63,TW,1701335277
381,campeni,46.3667,23.05,273.91,63,98,1.27,RO,1701335277
382,ouarzazat,30.9189,-6.8934,287.66,25,61,0.66,MA,1701335278
383,atherton,53.5237,-2.4935,274.68,90,11,3.85,GB,1701335278
384,olinda,-8.0089,-34.8553,299.0,83,40,2.06,BR,1701335258
385,paita,-5.0892,-81.1144,293.24,80,45,3.7,PE,1701335278
386,upper hutt,-41.1383,175.0502,287.44,92,63,1.65,NZ,1701335278
387,kununurra,-15.7667,128.7333,312.14,30,40,2.57,AU,1701335278
388,cadca,49.435,18.789,274.37,83,99,2.52,SK,1701335278
389,katabu,-4.9333,122.5167,302.4,75,55,0.82,ID,1701335278
390,toliara,-23.35,43.6667,302.33,63,78,5.33,MG,1701335279
391,tarawa,1.419,172.984,302.2,84,40,1.54,KI,1701335279
392,villazon,-22.0866,-65.5942,285.18,67,59,2.58,BO,1701335279
393,xianju,28.85,120.7333,285.64,71,100,2.02,CN,1701335279
394,siliguri,26.7,88.4333,300.93,40,0,1.82,IN,1701335279
395,san alejo,13.4314,-87.9631,294.54,85,8,1.26,SV,1701335279
396,mariehamn,60.0973,19.9348,272.49,80,100,6.17,AX,1701335279
397,rahimah,26.7079,50.0619,295.27,48,71,9.02,SA,1701335279
398,lensk,60.7253,114.9278,257.46,90,100,5.92,RU,1701335280
399,firuzabad,28.8438,52.5707,292.24,19,0,1.48,IR,1701335241
400,sun prairie,43.1836,-89.2137,275.08,86,0,3.6,US,1701335059
401,gadzhiyevo,69.2551,33.3362,271.43,96,100,4.3,RU,1701335280
402,talghar,43.3044,77.2328,276.18,100,100,2.0,KZ,1701335280
403,alta,69.9689,23.2717,272.74,83,75,2.06,NO,1701335280
404,labasa,-16.4167,179.3833,299.17,89,89,3.37,FJ,1701335280
405,upington,-28.4478,21.2561,306.36,9,0,2.06,ZA,1701335280
406,arkhangel'sk,64.5401,40.5433,266.21,86,100,3.0,RU,1701335281
407,swakopmund,-22.6833,14.5333,294.25,76,52,2.68,NA,1701335281
408,ati,13.2154,18.3353,306.38,15,67,6.52,TD,1701335281
409,basoko,1.2391,23.616,298.45,79,97,1.46,CD,1701335281
410,iquique,-20.2208,-70.1431,290.83,74,94,1.7,CL,1701335281
411,kingston,17.997,-76.7936,299.68,83,20,3.6,JM,1701335028
412,ciudad lazaro cardenas,17.9583,-102.2,297.83,88,97,2.01,MX,1701335281
413,gorontalo,0.5412,123.0595,298.96,90,100,2.32,ID,1701335282
414,kolonia town,6.964,158.206,302.15,74,40,3.09,FM,1701335282
415,papao,-17.75,-149.55,300.97,89,100,10.22,PF,1701335282
416,umm as sahik,26.6536,49.9164,296.23,40,66,8.37,SA,1701335282
417,ilebo,-4.3167,20.5833,297.21,79,100,0.64,CD,1701335282
418,tomatlan,19.9333,-105.25,295.04,82,17,1.21,MX,1701335282
419,yuzhno-kurilsk,44.0306,145.8556,273.91,54,100,7.1,RU,1701335282
420,senanga,-16.1167,23.2667,301.64,46,77,1.43,ZM,1701335283
421,kailua-kona,19.6406,-155.9956,298.13,97,100,0.89,US,1701335283
422,cheremushki,52.8356,91.3944,269.09,91,30,1.52,RU,1701335283
423,opuwo,-18.0607,13.84,301.25,35,100,1.99,NA,1701335283
424,pekalongan,-6.8886,109.6753,303.27,71,71,1.79,ID,1701335284
425,alofi,-19.0595,-169.9187,298.96,75,89,8.5,NU,1701335284
426,grootfontein,-19.5667,18.1167,303.32,31,67,4.52,NA,1701335284
427,morant bay,17.8815,-76.4093,297.99,83,17,3.1,JM,1701335284
428,amstelveen,52.3008,4.8639,275.36,97,20,2.24,NL,1701335182
429,campbellton,48.0075,-66.6727,267.05,83,100,2.19,CA,1701335284
430,erenhot,43.6475,111.9767,260.99,72,60,4.11,CN,1701335285
431,drama,41.1544,24.1394,286.85,70,64,1.61,GR,1701335285
432,anyksciai,55.5256,25.1026,269.25,94,100,5.05,LT,1701335285
433,caburan,5.9181,125.6411,299.84,81,100,0.88,PH,1701335285
434,anamosa,42.1083,-91.2852,275.87,88,29,4.11,US,1701335285
435,ascencion,31.1,-107.9833,283.48,54,2,7.71,MX,1701335285
436,mongoumba,3.6415,18.5936,303.42,54,99,0.62,CF,1701335286
437,sita road,27.0333,67.85,301.84,19,0,0.06,PK,1701335286
438,newbury,51.4003,-1.3206,273.89,95,69,6.42,GB,1701335286
439,kandahar,31.0,65.75,292.28,25,0,4.68,AF,1701335286
440,alice springs,-23.7,133.8833,294.9,83,75,8.75,AU,1701335286
441,itaituba,-4.2761,-55.9836,295.09,97,93,1.14,BR,1701335286
442,nkhotakota,-12.9274,34.2961,303.35,52,98,2.17,MW,1701335287
443,lazaro cardenas,17.9583,-102.2,297.83,88,97,2.01,MX,1701335281
444,kavaratti,10.5669,72.642,301.98,70,64,2.5,IN,1701335287
445,chu,43.5983,73.7614,279.23,76,100,3.62,KZ,1701335287
446,pamplona,42.8169,-1.6432,284.52,94,75,1.54,ES,1701335287
447,tabou,4.423,-7.3528,300.51,78,31,1.02,CI,1701335287
448,campbell river,50.0163,-125.2446,276.18,86,100,1.4,CA,1701335256
449,nema,57.5067,50.5011,263.33,92,82,1.22,RU,1701335288
450,mount gambier,-37.8333,140.7667,288.87,70,3,5.11,AU,1701335288
451,delta,5.5,6.0,303.85,67,13,0.64,NG,1701335288
452,vernon,50.2581,-119.2691,273.57,93,100,0.42,CA,1701335288
453,caleta de carquin,-11.0925,-77.6267,291.95,87,99,2.86,PE,1701335288
454,kudahuvadhoo,2.6708,72.8944,301.19,73,71,2.39,MV,1701335288
455,kambove,-10.8764,26.5969,292.51,92,100,0.85,CD,1701335289
456,plymouth,41.8334,-70.8328,274.64,63,100,2.57,US,1701335289
457,bethlehem,-1.4558,-48.5044,298.17,94,0,2.57,BR,1701335171
458,arvayheer,46.2639,102.775,262.57,59,0,2.15,MN,1701335289
459,lisakovsk,52.5369,62.4936,271.79,95,100,7.56,KZ,1701335289
460,puerto deseado,-47.7503,-65.8938,286.17,52,22,11.95,AR,1701335289
461,iznik,40.4286,29.7211,287.01,81,93,1.79,TR,1701335290
462,mitchell,43.7094,-98.0298,272.14,69,0,7.2,US,1701335222
463,labytnangi,66.6572,66.4183,254.31,98,19,3.03,RU,1701335290
464,ta'izz,13.5,44.0,297.71,24,36,2.19,YE,1701335290
465,pangkalanbuun,-2.6833,111.6167,301.23,89,80,1.48,ID,1701335290
466,al fuwayliq,26.4432,43.2534,294.87,37,69,4.97,SA,1701335290
467,pangody,65.85,74.4859,256.27,97,30,4.53,RU,1701335291
468,sao gabriel da cachoeira,-0.1303,-67.0892,295.59,99,98,0.61,BR,1701335291
469,zambezi,-13.5432,23.1047,292.67,96,100,2.7,ZM,1701335291
470,pokhara,28.2333,83.9833,294.77,43,90,1.79,NP,1701335201
471,massawa,15.6097,39.45,303.47,55,9,2.71,ER,1701335291
472,broome,42.2506,-75.833,270.72,73,7,1.34,US,1701335292
473,sungailiat,-1.85,106.1333,302.87,68,84,0.53,ID,1701335292
474,quezon,7.7303,125.0989,298.61,81,100,1.43,PH,1701335099
475,sainte-suzanne,-20.9061,55.6089,303.27,71,100,2.57,RE,1701335292
476,magistral'nyy,56.1725,107.4458,260.02,90,100,0.5,RU,1701335292
477,purranque,-40.9167,-73.1667,279.42,99,25,0.85,CL,1701335292
478,kutum,14.2,24.6667,299.55,15,47,5.37,SD,1701335292
479,muravlenko,63.7898,74.523,268.45,97,100,3.29,RU,1701335292
480,ishigaki,24.3448,124.1572,296.41,77,100,12.14,JP,1701335293
481,cadale,2.7603,46.3222,303.88,60,100,7.47,SO,1701335293
482,leua,48.2156,18.6071,274.54,91,100,5.3,SK,1701335293
483,holyhead,53.3062,-4.6321,276.15,75,75,3.6,GB,1701335293
484,phalaborwa,-23.943,31.1411,297.44,46,67,6.7,ZA,1701335293
485,pundong,-7.9522,110.3486,300.88,80,95,5.59,ID,1701335293
486,punta alta,-38.8759,-62.0736,293.19,32,0,5.92,AR,1701335293
487,tura,25.5198,90.2201,299.49,46,0,0.78,IN,1701335294
488,chipata,-13.6333,32.65,302.01,46,98,1.78,ZM,1701335294
489,westport,41.1415,-73.3579,275.27,53,0,4.63,US,1701335294
490,kangaba,11.9333,-8.4167,302.21,18,22,1.6,ML,1701335294
491,el nido,11.1858,119.3956,301.64,73,80,7.36,PH,1701335294
492,puerto cabezas,14.0351,-83.3888,297.68,91,98,3.51,NI,1701335295
493,leszno,51.8403,16.5749,273.73,81,75,2.19,PL,1701335295
494,chui,-33.6971,-53.4616,292.54,95,100,0.85,UY,1701335295
495,zabaykal'sk,49.6333,117.3167,257.21,91,36,6.34,RU,1701335295
496,suizhou,31.7111,113.3631,280.3,30,100,2.67,CN,1701335296
497,laguna,38.421,-121.4238,283.2,87,0,1.54,US,1701335039
498,birobidzhan,48.8,132.95,251.66,97,33,0.93,RU,1701335296
499,paka,4.6374,103.4368,301.82,73,31,3.96,MY,1701335296
500,guiping,23.3925,110.0814,291.36,85,100,2.56,CN,1701335296
501,sandnessjoen,66.0217,12.6316,270.21,50,40,4.12,NO,1701335006
502,gamay,12.3854,125.2979,299.25,92,100,3.3,PH,1701335296
503,puerto santa,-8.9906,-78.6456,291.46,90,100,2.69,PE,1701335297
504,shindand,33.3029,62.1474,290.52,33,4,2.07,AF,1701335297
505,nova vicosa,-17.8919,-39.3719,297.39,85,62,4.14,BR,1701335297
506,geraldton,-28.7667,114.6,299.38,61,0,9.26,AU,1701335297
507,woodward,36.4337,-99.3904,282.72,91,0,6.17,US,1701335297
508,villa emilio carranza,19.9667,-96.6,294.62,91,95,1.67,MX,1701335298
509,gumdag,39.2061,54.5906,287.9,40,59,7.75,TM,1701335298
510,middlewich,53.193,-2.444,274.83,90,12,3.2,GB,1701335298
511,kristiansund,63.1115,7.732,270.51,74,0,2.57,NO,1701335298
512,lospalos,-8.5186,127.0025,300.24,66,38,3.27,TL,1701335298
513,rongelap,11.1635,166.8941,301.37,72,100,8.73,MH,1701335298
514,bikenibeu village,1.3673,173.1241,302.13,84,40,1.54,KI,1701335298
515,cold lake,54.4502,-110.2017,268.8,87,99,4.23,CA,1701335298
516,manokwari,-0.8667,134.0833,301.03,77,55,2.8,ID,1701335299
517,coahuayana de hidalgo,18.7,-103.6583,296.07,90,46,2.17,MX,1701335299
518,vuktyl,63.8567,57.3094,266.54,90,100,0.89,RU,1701335299
519,vila franca do campo,37.7167,-25.4333,290.31,99,92,12.19,PT,1701335299
520,santa elena de uairen,4.6167,-61.1333,291.11,90,96,1.97,VE,1701335299
521,mormugao,15.4,73.8,304.74,55,20,3.09,IN,1701335299
522,thinadhoo,0.5333,72.9333,300.91,77,100,7.27,MV,1701335300
523,khandud,36.9513,72.318,274.03,74,100,0.4,AF,1701335300
524,verkhniy rohachyk,47.2505,34.338,274.38,52,1,3.53,UA,1701335300
525,hemel hempstead,51.7537,-0.4752,273.45,97,100,3.6,GB,1701335048
526,waingapu,-9.6567,120.2641,302.91,73,67,4.59,ID,1701335300
527,masterton,-40.9597,175.6575,285.86,89,82,1.36,NZ,1701335301
528,mashhad,36.297,59.6062,285.23,71,20,0.0,IR,1701335301
529,i-n-salah,27.1935,2.4607,293.64,17,0,1.42,DZ,1701335301
530,amarante,-6.2411,-42.8547,296.57,78,9,1.25,BR,1701335301
531,chita,52.0333,113.55,259.09,66,9,3.0,RU,1701335301
532,cururupu,-1.8283,-44.8683,297.27,86,1,1.53,BR,1701335220
533,greenwood,34.1668,-82.1165,274.16,74,0,1.54,US,1701335301
534,xacmaz,41.4635,48.806,286.59,53,8,1.55,AZ,1701335302
535,iskenderun,36.5872,36.1735,288.3,52,95,3.06,TR,1701335302
536,pitimbu,-7.4706,-34.8086,298.48,74,41,3.07,BR,1701335302
537,sydney,-33.8679,151.2073,295.99,70,75,2.57,AU,1701335236
538,yelwa,8.8333,9.6333,306.69,17,1,1.21,NG,1701335302
539,mozarlandia,-14.7447,-50.5706,297.5,41,99,0.67,BR,1701335264
540,golfito,8.639,-83.166,295.86,95,86,1.35,CR,1701335302
541,simpang,-1.2667,104.0833,299.75,90,100,1.57,ID,1701335302
542,ketchikan,55.3422,-131.6461,279.41,81,100,6.69,US,1701335303
543,phongsali,21.6833,102.1058,294.54,54,99,0.68,LA,1701335303
544,boyalik,41.2634,28.6314,283.66,64,92,4.55,TR,1701335303
545,yongbyon,39.8133,125.8042,265.38,65,0,0.53,KP,1701335303
546,vega de alatorre,20.0333,-96.6333,294.52,91,96,1.56,MX,1701335303
547,lethem,3.3803,-59.7968,297.58,78,90,5.25,GY,1701335303
548,kirakira,-10.4544,161.9205,300.24,87,99,3.94,SB,1701335303
549,lamesa,32.7376,-101.951,282.33,96,71,5.88,US,1701335304
550,kapa'a,22.0752,-159.319,297.14,87,20,2.06,US,1701335304
551,dunedin,-45.8742,170.5036,283.04,76,87,1.34,NZ,1701335304
552,quellon,-43.1167,-73.6167,284.16,87,100,5.22,CL,1701335304
553,acarau,-2.8856,-40.12,300.0,74,77,5.15,BR,1701335304
554,klyuchi,52.2667,79.1667,277.95,83,98,4.22,RU,1701335304
555,baiona,43.4833,-1.4833,286.38,94,75,2.06,FR,1701335304
556,voznesenskaya,44.5527,41.0318,281.66,79,100,3.69,RU,1701335305
557,moussoro,13.6408,16.4901,305.9,15,1,7.76,TD,1701335305
558,vavuniya,8.7514,80.4971,301.6,68,97,3.0,LK,1701335305
559,alzamay,55.5562,98.6644,264.62,97,100,0.35,RU,1701335305
560,la ronge,55.1001,-105.2842,266.03,96,99,1.54,CA,1701335305
561,byron bay,-28.65,153.6167,298.11,50,93,4.01,AU,1701335296
562,lorengau,-2.0226,147.2712,301.37,78,100,1.07,PG,1701335306
563,villa gesell,-37.2639,-56.973,289.06,90,0,5.22,AR,1701335306
564,rasony,55.9089,28.8126,269.46,96,100,4.34,BY,1701335306
565,rosarito,32.3333,-117.0333,287.17,82,20,1.16,MX,1701335306
566,grasse,43.6667,6.9167,283.53,95,100,1.54,FR,1701335157
