City_ID,City,Lat,Lng,Max Temp,Humidity,Cloudiness,Wind Speed,Country,Date
0,ribeira grande,38.5167,-28.7,288.02,67,40,10.8,PT,1701330432
1,vilyuchinsk,52.9306,158.4028,269.3,77,100,4.7,RU,1701330432
2,adamstown,-25.066,-130.1015,294.33,77,100,3.73,PN,1701330432
3,palmer,42.1584,-72.3287,272.86,60,100,2.57,US,1701330405
4,mubende,0.5606,31.39,299.9,41,56,2.49,UG,1701330432
5,bethel,41.3712,-73.414,274.32,59,75,0.0,US,1701330433
6,punta arenas,-53.15,-70.9167,279.21,70,40,10.29,CL,1701330433
7,codrington,-38.2667,141.9667,288.65,73,97,9.73,AU,1701330433
8,aasiaat,68.7098,-52.8699,271.43,82,100,3.04,GL,1701330433
9,korsun-shevchenkivskyi,49.4189,31.2587,270.87,78,10,4.81,UA,1701330433
10,grytviken,-54.2811,-36.5092,276.69,86,100,4.98,GS,1701330433
11,leava,-14.3,-178.1667,301.51,80,98,10.12,WF,1701330434
12,edinburgh of the seven seas,-37.0676,-12.3116,285.42,64,87,9.21,SH,1701330434
13,kourou,5.1552,-52.6478,297.18,90,69,2.85,GF,1701330233
14,petropavlovsk-kamchatsky,53.0452,158.6483,268.48,65,75,3.58,RU,1701330434
15,puerto natales,-51.7236,-72.4875,276.32,81,60,7.56,CL,1701330434
16,dudinka,69.4058,86.1778,250.82,99,89,1.18,RU,1701330434
17,port elizabeth,-33.918,25.5701,294.99,62,0,8.75,ZA,1701330434
18,isafjordur,66.0755,-23.124,276.17,65,75,4.63,IS,1701330435
19,kailua-kona,19.6406,-155.9956,298.13,98,75,1.54,US,1701330410
20,vadso,70.0744,29.7487,273.64,93,100,8.75,NO,1701330435
21,east london,-33.0153,27.9116,295.67,56,75,4.63,ZA,1701330435
22,riberalta,-10.9833,-66.1,295.64,98,100,0.99,BO,1701330436
23,waitangi,-43.9535,-176.5597,283.61,86,75,3.58,NZ,1701330436
24,panaba,21.2833,-88.2667,293.37,82,28,2.93,MX,1701330436
25,alta,69.9689,23.2717,271.74,83,75,6.17,NO,1701330436
26,zabol,32.25,67.25,286.05,26,0,6.09,AF,1701330436
27,afaahiti,-17.75,-149.2833,300.08,89,100,9.17,PF,1701330437
28,nyala,12.05,24.8833,302.38,17,90,8.7,SD,1701330437
29,fereydunshahr,32.941,50.121,283.04,13,0,0.85,IR,1701330437
30,thompson,55.7435,-97.8558,251.24,71,0,4.63,CA,1701330437
31,ushuaia,-54.8,-68.3,276.96,93,100,4.63,AR,1701330437
32,colonia,50.9333,6.95,275.29,91,75,2.06,DE,1701330259
33,belmopan,17.25,-88.7667,296.36,100,100,0.49,BZ,1701330438
34,avarua,-21.2078,-159.775,297.18,83,20,3.6,CK,1701330415
35,sayat,38.7839,63.8803,280.08,32,13,2.95,TM,1701330438
36,puerto ayora,-0.7393,-90.3518,297.9,92,37,2.24,EC,1701330439
37,port-aux-francais,-49.35,70.2167,275.62,84,64,20.08,TF,1701330439
38,klyuchi,52.2667,79.1667,278.38,75,97,4.53,RU,1701330439
39,bandiagara,14.3501,-3.6104,301.27,14,8,4.01,ML,1701330439
40,dubbo,-32.25,148.6167,298.22,44,100,8.75,AU,1701330275
41,west island,-12.1568,96.8225,302.14,65,40,5.66,CC,1701330439
42,chibougamau,49.9168,-74.3659,268.94,93,100,4.63,CA,1701330440
43,yellowknife,62.456,-114.3525,255.6,89,75,1.54,CA,1701330183
44,alghero,40.5589,8.3181,291.2,94,40,8.75,IT,1701330440
45,kodiak,57.79,-152.4072,274.88,93,100,6.17,US,1701330441
46,burhanuddin,22.4918,90.7235,300.46,53,3,3.79,BD,1701330441
47,tura,25.5198,90.2201,300.17,43,0,0.75,IN,1701330441
48,vorgashor,67.5833,63.95,256.39,96,14,2.33,RU,1701330441
49,flying fish cove,-10.4217,105.6791,300.97,69,75,4.63,CX,1701330441
50,labuan bajo,-8.4964,119.8877,302.43,74,72,0.97,ID,1701330442
51,whitehorse,60.7161,-135.0538,264.58,78,100,7.72,CA,1701330442
52,pisco,-13.7,-76.2167,291.49,88,0,3.09,PE,1701330442
53,kelibia,36.8476,11.0939,288.29,82,0,1.54,TN,1701330442
54,stanley,54.868,-1.6985,274.13,90,40,1.54,GB,1701330442
55,tiksi,71.6872,128.8694,249.39,93,100,10.68,RU,1701330443
56,chegdomyn,51.1167,133.0167,250.7,94,38,0.73,RU,1701330443
57,blackmans bay,-43.0167,147.3167,288.0,68,97,0.45,AU,1701330443
58,sambava,-14.2667,50.1667,302.38,69,33,4.35,MG,1701330443
59,hawaiian paradise park,19.5933,-154.9731,297.88,96,75,2.57,US,1701330443
60,rio grande,-32.035,-52.0986,293.68,93,94,2.72,BR,1701330444
61,margaret river,-33.95,115.0667,295.4,60,76,7.26,AU,1701330444
62,port alfred,-33.5906,26.891,293.81,71,74,4.47,ZA,1701330444
63,grand falls-windsor,48.9332,-55.6649,268.99,83,9,0.89,CA,1701330444
64,fort mcmurray,56.7268,-111.381,271.92,80,100,5.14,CA,1701330319
65,hithadhoo,-0.6,73.0833,301.3,76,97,6.87,MV,1701330444
66,enewetak,11.3474,162.3373,300.9,79,100,9.17,MH,1701330445
67,turinsk,58.0458,63.696,269.23,86,100,3.25,RU,1701330445
68,aykhal,66.0,111.5,260.18,94,100,9.47,RU,1701330445
69,uturoa,-16.7333,-151.4333,300.32,83,100,9.08,PF,1701330445
70,kuqa,41.7278,82.9364,279.94,29,61,1.0,CN,1701330446
71,papatowai,-46.5619,169.4708,281.81,80,39,3.78,NZ,1701330446
72,lerwick,60.1545,-1.1494,277.15,66,77,7.54,GB,1701330446
73,iqaluit,63.7506,-68.5145,270.0,68,40,11.32,CA,1701330446
74,ormara,25.2088,64.6357,298.63,53,1,0.99,PK,1701330446
75,talnakh,69.4865,88.3972,252.59,100,91,1.95,RU,1701330447
76,anamur,36.0751,32.8369,289.73,71,96,2.06,TR,1701330447
77,umm kaddadah,13.6017,26.6876,302.03,15,98,9.26,SD,1701330447
78,taroa,8.7058,171.2275,301.16,76,87,8.15,MH,1701330447
79,krasnyy chikoy,50.3643,108.7512,261.28,86,100,0.77,RU,1701330447
80,weno,7.4515,151.8468,303.12,74,40,3.6,FM,1701330448
81,nova sintra,14.8667,-24.7167,294.78,75,100,2.53,CV,1701330448
82,port saint john's,-31.6229,29.5448,295.02,50,3,4.31,ZA,1701330448
83,iskateley,67.6803,53.1512,263.16,96,99,3.13,RU,1701330448
84,sitka,57.0531,-135.33,281.09,57,100,10.8,US,1701330449
85,rawson,-43.3002,-65.1023,290.55,43,0,8.87,AR,1701330449
86,hermanus,-34.4187,19.2345,298.62,43,73,0.54,ZA,1701330449
87,xichang,27.8964,102.2634,291.41,57,59,0.63,CN,1701330449
88,port mathurin,-19.6833,63.4167,298.39,69,0,5.8,MU,1701330449
89,port lincoln,-34.7333,135.8667,291.6,67,100,6.03,AU,1701330450
90,mount isa,-20.7333,139.5,308.02,28,49,3.6,AU,1701330450
91,stephenville,32.2207,-98.2023,287.73,71,100,4.63,US,1701330450
92,angaur state,6.906,134.13,301.88,78,30,4.32,PW,1701330450
93,holualoa,19.6228,-155.9522,296.06,98,75,1.54,US,1701330451
94,mersing,2.4312,103.8405,303.1,79,40,6.69,MY,1701330451
95,san sebastian de la gomera,28.0916,-17.1133,294.35,77,40,4.63,ES,1701330366
96,daru,-9.0763,143.2092,301.31,75,37,3.26,PG,1701330451
97,les cayes,18.2,-73.75,296.68,86,63,1.66,HT,1701330451
98,georgetown,5.4112,100.3354,304.12,70,20,4.63,MY,1701330452
99,zalari,53.5584,102.5065,263.03,93,100,0.82,RU,1701330452
100,lihue,21.9789,-159.3672,295.92,81,40,4.63,US,1701330452
101,ouesso,1.6136,16.0517,298.16,76,92,0.96,CG,1701330452
102,atafu village,-8.5421,-172.5159,302.53,73,15,6.71,TK,1701330452
103,zhenzhou,32.2692,119.1789,279.76,31,100,4.07,CN,1701330453
104,prymors'k,46.7348,36.3443,275.28,94,100,3.34,UA,1701330453
105,jinchang,38.4953,102.1739,272.75,32,0,2.38,CN,1701330453
106,salinas,36.6777,-121.6555,286.2,92,100,2.06,US,1701330171
107,naze,28.3667,129.4833,290.66,73,100,7.85,JP,1701330453
108,badger,64.8,-147.5333,263.1,87,20,2.06,US,1701330453
109,birao,10.2849,22.7882,304.41,20,59,4.72,CF,1701330454
110,albany,42.6001,-73.9662,272.19,65,36,0.45,US,1701330164
111,gamprin,47.2204,9.5094,275.89,92,100,0.45,LI,1701330454
112,remire-montjoly,4.9167,-52.2667,297.17,94,20,0.0,GF,1701330454
113,college,64.8569,-147.8028,263.14,85,75,2.06,US,1701330454
114,aldama,22.9167,-98.0667,293.91,90,100,1.88,MX,1701330455
115,ola,59.5833,151.2833,256.69,85,12,2.88,RU,1701330455
116,jilib,0.4883,42.7854,306.54,45,49,4.14,SO,1701330455
117,bhawanipatna,19.9,83.1667,304.99,34,14,1.7,IN,1701330456
118,ust-nera,64.5667,143.2,248.71,99,100,2.93,RU,1701330456
119,constantia,44.1833,28.65,275.76,72,72,1.43,RO,1701330246
120,sassandra,4.95,-6.0833,299.79,80,26,1.22,CI,1701330456
121,invercargill,-46.4,168.35,282.81,71,62,1.96,NZ,1701330456
122,timimoun,29.2639,0.231,279.36,28,0,2.06,DZ,1701330456
123,taft,31.7471,54.2088,287.12,36,0,1.03,IR,1701330457
124,coquimbo,-29.9533,-71.3436,288.0,88,100,1.54,CL,1701330229
125,yaransk,57.3033,47.8861,263.64,94,96,4.63,RU,1701330457
126,keshorai patan,25.3,75.9333,299.39,49,0,2.96,IN,1701330457
127,barcs,45.96,17.4586,275.32,83,100,2.83,HU,1701330457
128,amga,60.8953,131.9608,260.88,93,100,4.7,RU,1701330457
129,san matias,-16.3667,-58.4,299.62,57,87,1.95,BO,1701330458
130,hammerfest,70.6634,23.6821,272.4,80,75,5.14,NO,1701330458
131,qaqortoq,60.7167,-46.0333,274.08,57,100,9.67,GL,1701330458
132,ishikawa,26.4233,127.8214,296.56,58,75,5.66,JP,1701330458
133,salavat,53.3837,55.9077,267.75,87,65,1.7,RU,1701330458
134,pariaman,-0.619,100.12,300.18,94,100,1.43,ID,1701330459
135,ntungamo,-0.8833,29.65,298.23,64,100,1.5,UG,1701330459
136,la passe,45.5549,-0.8967,280.28,92,100,0.38,FR,1701330459
137,taksimo,56.3444,114.8794,254.32,92,72,0.72,RU,1701330459
138,mount gambier,-37.8333,140.7667,290.3,64,3,5.7,AU,1701330459
139,dunedin,-45.8742,170.5036,283.04,78,98,4.02,NZ,1701330460
140,dakoutun,39.5833,117.2289,273.39,23,0,4.86,CN,1701330460
141,jamestown,42.097,-79.2353,274.92,80,100,5.14,US,1701330438
142,yarmouth,41.7057,-70.2286,276.49,71,40,1.79,US,1701330460
143,broken hill,-31.95,141.4333,297.49,36,100,6.55,AU,1701330448
144,waddan,29.1614,16.139,292.76,24,0,1.36,LY,1701330460
145,wailua homesteads,22.0669,-159.378,295.59,86,40,4.63,US,1701330461
146,dwarka,22.2394,68.9678,299.33,40,0,5.03,IN,1701330461
147,vilyuysk,63.7553,121.6247,262.04,90,100,6.26,RU,1701330461
148,namibe,-15.1961,12.1522,297.59,79,68,2.04,AO,1701330461
149,tyukhtet,56.5389,89.3011,266.45,83,90,2.18,RU,1701330461
150,carnarvon,-24.8667,113.6333,298.02,60,0,8.51,AU,1701330461
151,kingston,17.997,-76.7936,298.68,89,20,2.06,JM,1701330211
152,bereeda,11.8704,51.0579,301.07,63,4,6.61,SO,1701330461
153,nar'yan-mar,67.6713,53.087,263.21,96,99,3.13,RU,1701330461
154,hami,42.8,93.45,280.15,15,5,2.67,CN,1701330462
155,bilibino,68.0546,166.4372,239.98,97,71,1.42,RU,1701330213
156,praia da vitoria,38.7333,-27.0667,287.46,77,75,11.6,PT,1701330462
157,keflavik,64.0049,-22.5624,274.39,86,40,3.09,IS,1701330462
158,longyearbyen,78.2186,15.6401,268.06,86,75,8.23,SJ,1701330462
159,hasaki,35.7333,140.8333,285.37,56,87,11.53,JP,1701330462
160,den burg,53.0542,4.7972,274.14,94,19,1.03,NL,1701330462
161,muynoq,43.7683,59.0214,280.74,35,45,7.02,UZ,1701330462
162,panacan,9.2463,118.4082,302.37,72,28,5.77,PH,1701330463
163,saipan,15.1355,145.701,301.54,83,100,6.69,MP,1701330463
164,balsas,-7.5325,-46.0356,297.46,69,2,0.4,BR,1701330202
165,tionk essil,12.7856,-16.5217,296.13,38,47,2.55,SN,1701330463
166,phang nga,8.4509,98.5298,301.17,74,100,2.22,TH,1701330463
167,sechura,-5.5569,-80.8222,293.26,79,27,3.76,PE,1701330463
168,hamilton,39.1834,-84.5333,277.21,80,75,4.12,US,1701330193
169,ulanhot,46.0833,122.0833,263.26,61,4,6.15,CN,1701330392
170,fauske,67.2588,15.3918,269.69,75,93,3.12,NO,1701330464
171,tucurui,-3.7661,-49.6725,296.09,94,0,1.79,BR,1701330464
172,danilovgrad,42.5538,19.1461,286.76,82,82,1.36,ME,1701330464
173,masterton,-40.9597,175.6575,286.42,86,73,1.19,NZ,1701330464
174,ilulissat,69.2167,-51.1,278.16,52,75,2.57,GL,1701330464
175,el granada,37.5027,-122.4694,285.69,89,0,0.0,US,1701330464
176,keningau,5.3378,116.1602,299.64,92,100,1.58,MY,1701330332
177,bhamo,24.2667,97.2333,301.78,37,0,0.66,MM,1701330465
178,turkmenbasy,40.0222,52.9552,285.58,50,0,6.17,TM,1701330465
179,de aar,-30.6497,24.0123,296.25,19,6,6.45,ZA,1701330465
180,chala,-7.5833,31.2667,294.5,71,91,1.44,TZ,1701330465
181,homer,59.6425,-151.5483,276.08,82,40,2.57,US,1701330465
182,selfoss,63.9331,-20.9971,272.39,80,45,3.47,IS,1701330465
183,aswan,24.0934,32.907,293.76,34,0,3.09,EG,1701330465
184,andapa,-14.65,49.65,305.03,49,56,1.87,MG,1701330466
185,khandyga,62.6667,135.6,247.92,99,100,1.58,RU,1701330466
186,zaozersk,69.4005,32.4476,271.81,98,100,5.4,RU,1701330252
187,bikenibeu village,1.3673,173.1241,302.13,79,75,3.09,KI,1701330466
188,monrovia,6.3005,-10.7969,298.02,87,100,2.19,LR,1701330466
189,humaita,-7.5061,-63.0208,296.85,97,100,0.5,BR,1701330274
190,inari,68.906,27.0288,271.26,97,100,4.29,FI,1701330466
191,dordrecht,51.81,4.6736,274.83,94,96,0.45,NL,1701330467
192,swakopmund,-22.6833,14.5333,292.58,81,64,3.13,NA,1701330467
193,urumqi,43.801,87.6005,270.68,86,75,2.0,CN,1701330367
194,pantai remis,4.4557,100.6288,304.16,88,93,3.02,MY,1701330467
195,mahibadhoo,3.7833,72.9667,301.54,72,41,2.45,MV,1701330467
196,kone,-21.0595,164.8658,298.71,72,94,1.33,NC,1701330467
197,al muwayh,22.4333,41.7583,298.71,29,0,8.14,SA,1701330467
198,cabo san lucas,22.8909,-109.9124,297.46,81,98,2.24,MX,1701330468
199,palikir - national government center,6.9248,158.1611,301.56,74,75,2.57,FM,1701330468
200,kapuskasing,49.4169,-82.4331,272.2,80,100,5.66,CA,1701330468
201,zalingei,12.9096,23.4741,301.17,20,54,1.5,SD,1701330468
202,santa maria da vitoria,-13.3947,-44.1886,298.24,49,94,0.5,BR,1701330468
203,zambezi,-13.5432,23.1047,292.41,97,100,2.57,ZM,1701330468
204,sandpoint,48.2766,-116.5533,271.33,83,100,0.45,US,1701330240
205,matoury,4.8483,-52.3317,297.13,94,20,0.0,GF,1701330468
206,tchintabaraden,15.8969,5.7985,300.2,15,82,5.41,NE,1701330469
207,east ballina,-28.8667,153.5833,300.4,44,76,4.42,AU,1701330469
208,belozersk,60.0326,37.7957,264.81,94,100,4.02,RU,1701330469
209,opuwo,-18.0607,13.84,299.56,39,100,2.13,NA,1701330469
210,san rafael,-34.6177,-68.3301,290.79,48,0,2.11,AR,1701330469
211,beipiao,41.7919,120.7792,267.43,36,0,4.17,CN,1701330469
212,forster,-32.1667,152.5167,298.92,61,83,3.74,AU,1701330469
213,necochea,-38.5473,-58.7368,288.56,55,0,3.17,AR,1701330469
214,ko pha ngan,9.7578,100.0291,299.53,75,100,2.43,TH,1701330470
215,renfrew,55.872,-4.3925,272.68,87,58,0.51,GB,1701330470
216,nyurba,63.2842,118.3319,259.97,93,100,5.55,RU,1701330470
217,kapa'a,22.0752,-159.319,296.33,85,40,4.63,US,1701330470
218,noumea,-22.2763,166.4572,300.14,77,2,4.74,NC,1701330470
219,suva,-18.1416,178.4415,300.86,78,40,2.06,FJ,1701330470
220,lompoc,34.6391,-120.4579,285.33,90,40,2.57,US,1701330470
221,haiku-pauwela,20.9219,-156.3051,298.99,91,40,2.57,US,1701330471
222,bakchar,57.0186,82.0711,270.94,78,100,1.82,RU,1701330471
223,kenora,49.8167,-94.4337,271.69,86,75,3.6,CA,1701330471
224,paradip garh,20.3167,86.6167,301.55,50,13,5.36,IN,1701330471
225,an nuhud,12.7,28.4333,303.14,18,99,8.89,SD,1701330471
226,chivilcoy,-34.8957,-60.0167,287.91,88,0,1.72,AR,1701330471
227,fale old settlement,-9.3852,-171.2468,302.47,72,13,7.51,TK,1701330471
228,qamdo,31.1667,97.2333,275.27,28,64,1.89,CN,1701330471
229,ao luek,8.378,98.7212,302.22,76,100,1.71,TH,1701330472
230,tadine,-21.55,167.8833,296.29,76,2,4.2,NC,1701330472
231,lebu,-37.6167,-73.65,284.42,93,11,5.88,CL,1701330472
232,chandbali,20.7833,86.7667,302.66,42,16,4.18,IN,1701330472
233,la'ie,21.6477,-157.9253,295.81,84,81,3.42,US,1701330472
234,dongola,19.1667,30.4833,301.2,15,0,5.06,SD,1701330472
235,tolanaro,-25.0319,46.9987,302.19,70,40,3.09,MG,1701330472
236,st. john's,47.5649,-52.7093,271.92,92,100,6.69,CA,1701330464
237,gunjur,13.2019,-16.7339,294.19,68,0,0.0,GM,1701330473
238,ar ruways,24.1103,52.7306,297.82,54,0,7.28,AE,1701330473
239,livingstone,-17.8419,25.8543,302.12,41,88,3.52,ZM,1701330473
240,gadzhiyevo,69.2551,33.3362,271.42,95,100,4.22,RU,1701330473
241,anadyr,64.75,177.4833,270.43,86,75,10.0,RU,1701330473
242,auki,-8.7676,160.7034,300.26,86,100,1.67,SB,1701330473
243,olonkinbyen,70.9221,-8.7187,271.73,88,93,7.11,SJ,1701330474
244,puerto penasco,31.3167,-113.5333,290.95,49,0,3.14,MX,1701330474
245,marka,1.7159,44.7717,303.93,56,38,6.32,SO,1701330474
246,akureyri,65.6835,-18.0878,274.11,80,75,3.6,IS,1701330474
247,susuman,62.7833,148.1667,246.46,100,100,0.91,RU,1701330474
248,akhisar,38.9185,27.8401,286.99,100,75,3.09,TR,1701330474
249,guardo,42.7897,-4.8482,281.29,95,100,4.53,ES,1701330474
250,jianshui,23.6363,102.8264,293.81,55,100,1.5,CN,1701330474
251,turtas,58.9417,69.1325,265.77,83,100,1.95,RU,1701330475
252,murzuq,25.9155,13.9184,292.29,20,0,2.35,LY,1701330475
253,sheksna,59.21,38.5107,266.13,91,100,6.98,RU,1701330271
254,palmeiras de goias,-16.805,-49.9258,293.82,76,31,1.05,BR,1701330475
255,severo-yeniseyskiy,60.3725,93.0408,267.91,95,99,0.89,RU,1701330475
256,biograd na moru,43.9433,15.4519,287.46,66,84,11.41,HR,1701330475
257,baruun-urt,46.6806,113.2792,253.09,89,4,3.86,MN,1701330475
258,gloucester,51.8657,-2.2431,273.95,91,70,0.45,GB,1701330475
259,crane,31.3974,-102.3501,281.96,94,37,9.24,US,1701330476
260,lata,40.1629,-8.3327,288.1,98,100,2.44,PT,1701330476
261,luderitz,-26.6481,15.1594,295.87,56,0,4.85,NA,1701330476
262,san antonio de pale,-1.4014,5.6325,300.12,81,99,2.7,GQ,1701330476
263,richards bay,-28.783,32.0377,296.95,42,37,4.28,ZA,1701330476
264,ujae,8.9322,165.7642,300.94,76,100,6.6,MH,1701330476
265,utrik,11.2278,169.8474,300.92,75,100,8.71,MH,1701330476
266,quellon,-43.1167,-73.6167,284.14,87,100,5.19,CL,1701330477
267,ambodifotatra,-16.9833,49.85,299.95,85,8,7.88,MG,1701330477
268,sao joao da barra,-21.6403,-41.0511,296.58,91,100,5.04,BR,1701330477
269,senanga,-16.1167,23.2667,302.37,45,65,3.5,ZM,1701330477
270,moshkovo,55.3053,83.6104,272.95,74,100,4.26,RU,1701330477
271,kayangel,8.0823,134.7173,301.89,76,100,3.56,PW,1701330477
272,waldkirchen,48.7327,13.6008,272.23,91,100,0.7,DE,1701330477
273,canutama,-6.5339,-64.3831,296.19,97,100,0.71,BR,1701330477
274,tual,-5.6667,132.75,302.21,73,77,3.56,ID,1701330478
275,barentu,15.1139,37.5928,303.49,16,5,6.1,ER,1701330478
276,el calafate,-50.3408,-72.2768,277.68,71,15,8.46,AR,1701330478
277,fort bragg,35.139,-79.006,275.47,75,0,0.0,US,1701330478
278,andreapol',56.6513,32.2664,269.93,94,100,4.23,RU,1701330478
279,toliara,-23.35,43.6667,303.19,58,93,4.74,MG,1701330478
280,fisterra,42.9049,-9.2629,284.12,55,100,6.17,ES,1701330478
281,uliastay,47.7417,96.8444,262.73,68,2,1.74,MN,1701330478
282,ancud,-41.8697,-73.8203,284.26,91,100,4.98,CL,1701330479
283,arraial do cabo,-22.9661,-42.0278,296.39,92,0,3.49,BR,1701330479
284,wynyard,-41.0,145.7167,288.99,66,100,1.45,AU,1701330322
285,gao,16.6362,1.637,300.74,12,31,4.97,ML,1701330479
286,udachny,66.4167,112.4,260.07,92,100,8.61,RU,1701330386
287,cockburn town,21.4612,-71.1419,299.84,74,58,6.62,TC,1701330479
288,afif,23.9065,42.9172,296.64,38,0,8.18,SA,1701330479
289,barra de santo antonio,-9.4047,-35.5072,294.75,81,3,0.38,BR,1701330479
290,nehe,48.4833,124.8333,258.28,91,30,1.94,CN,1701330480
291,san mateo del mar,16.2,-95.0,297.68,80,100,9.15,MX,1701330480
292,mili,6.0815,171.735,300.85,82,100,7.99,MH,1701330480
293,lake havasu city,34.4839,-114.3224,286.18,36,0,0.89,US,1701330480
294,usinsk,65.9939,57.5281,265.97,91,100,2.68,RU,1701330480
295,smithers,54.7804,-127.1743,273.33,80,100,5.66,CA,1701330195
296,bat khela,34.6167,71.9714,288.27,63,100,0.75,PK,1701330256
297,manokwari,-0.8667,134.0833,301.26,76,56,2.41,ID,1701330481
298,montalbano jonico,40.2879,16.5788,276.75,65,48,0.84,IT,1701330481
299,antsiranana,-12.2787,49.2917,305.57,55,40,3.09,MG,1701330481
300,colares,38.7992,-9.4469,290.56,97,100,8.94,PT,1701330481
301,karaton,-6.3424,106.1045,301.88,75,100,1.55,ID,1701330481
302,port douglas,-16.4833,145.4667,300.38,75,100,1.79,AU,1701330481
303,bredasdorp,-34.5322,20.0403,300.94,28,86,3.22,ZA,1701330481
304,mont-dore,-22.2833,166.5833,300.14,78,6,3.77,NC,1701330482
305,naha,26.2125,127.6811,296.53,61,75,9.26,JP,1701330482
306,kristiansund,63.1115,7.732,270.51,74,0,2.57,NO,1701330482
307,bel ombre,-4.6167,55.4167,303.06,70,40,1.54,SC,1701330482
308,kermanshah,34.3142,47.065,282.65,57,20,2.06,IR,1701330483
309,lautoka,-17.6167,177.4667,302.07,74,40,3.09,FJ,1701330483
310,papao,-17.75,-149.55,300.97,88,100,10.46,PF,1701330483
311,tomatlan,19.9333,-105.25,295.27,82,15,1.23,MX,1701330483
312,hakha,22.65,93.6167,293.87,46,2,1.09,MM,1701330483
313,kirensk,57.7853,108.1119,258.13,98,97,0.89,RU,1701330484
314,ahmadpur sial,30.6754,71.7483,299.49,24,7,0.83,PK,1701330255
315,guane,22.2025,-84.0875,293.39,94,77,2.44,CU,1701330484
316,valparaiso,-33.0393,-71.6273,283.95,87,0,0.51,CL,1701330254
317,kuta,-8.7233,115.1723,305.12,62,75,3.6,ID,1701330484
318,campos gerais,-21.235,-45.7586,290.41,96,98,1.21,BR,1701330485
319,hadibu,12.65,54.0333,300.69,59,10,7.03,YE,1701330485
320,kupang,-10.1667,123.5833,307.47,59,40,4.63,ID,1701330485
321,bulungu,-4.55,18.6,297.52,89,100,1.56,CD,1701330485
322,bandarbeyla,9.4942,50.8122,301.58,62,6,11.34,SO,1701330486
323,port macquarie,-31.4333,152.9167,300.31,66,47,2.6,AU,1701330486
324,tamandare,-8.7597,-35.1047,296.83,81,7,1.77,BR,1701330486
325,geraldton,-28.7667,114.6,301.38,57,0,8.23,AU,1701330486
326,laojunmiao,39.8333,97.7333,274.48,26,0,3.17,CN,1701330486
327,shakawe,-18.3667,21.85,301.23,48,91,1.55,BW,1701330486
328,pokhara,28.2333,83.9833,296.01,37,87,1.96,NP,1701330487
329,kulhudhuffushi,6.6221,73.07,301.43,73,91,1.72,MV,1701330487
330,aral,40.5156,81.2636,280.18,32,100,1.74,CN,1701330487
331,calama,-22.4667,-68.9333,281.42,27,0,5.66,CL,1701330411
332,usogorsk,63.4106,48.6872,259.63,100,93,1.09,RU,1701330487
333,alice springs,-23.7,133.8833,297.9,69,87,4.12,AU,1701330450
334,altai,46.3722,96.2583,265.09,43,6,0.85,MN,1701330488
335,starobin,52.7267,27.4606,265.65,93,49,4.4,BY,1701330488
336,arkhangel'sk,64.5401,40.5433,266.21,86,100,2.0,RU,1701330488
337,kodinar,20.7903,70.7031,301.5,40,1,0.86,IN,1701330488
338,mariental,-24.6333,17.9667,305.87,11,0,6.94,NA,1701330488
339,nizhneangarsk,55.7833,109.55,261.48,91,100,1.34,RU,1701330489
340,egilsstadir,65.2653,-14.3948,273.1,100,100,3.6,IS,1701330489
341,pahrump,36.2083,-115.9839,278.85,50,0,0.98,US,1701330400
342,glace bay,46.1969,-59.957,270.25,72,20,6.17,CA,1701330273
343,rio gallegos,-51.6226,-69.2181,280.18,57,0,10.8,AR,1701330390
344,bambui,-20.0064,-45.9769,293.21,83,100,1.14,BR,1701330490
345,kangding,30.0513,101.9603,282.39,60,97,0.9,CN,1701330490
346,strathmore,51.0501,-113.3852,271.96,68,100,1.54,CA,1701330490
347,callao,-12.0667,-77.15,294.1,82,100,3.09,PE,1701330490
348,jerez de garcia salinas,22.65,-103.0,287.74,78,0,2.58,MX,1701330490
349,graaff-reinet,-32.2522,24.5308,294.77,39,16,1.44,ZA,1701330490
350,chonchi,-42.6128,-73.8092,283.77,92,97,2.05,CL,1701330491
351,skiathos,39.1623,23.4909,290.36,70,9,3.09,GR,1701330399
352,point pedro,9.8167,80.2333,300.91,74,86,4.72,LK,1701330491
353,fort st. john,56.2499,-120.8529,266.09,68,0,1.03,CA,1701330491
354,berezovyy,51.6667,135.7,255.26,81,0,1.2,RU,1701330491
355,harper,4.375,-7.7169,299.81,79,79,0.43,LR,1701330491
356,bubaque,11.2833,-15.8333,300.89,58,30,1.72,GW,1701330492
357,ain taya,36.7933,3.2869,283.06,93,17,1.03,DZ,1701330492
358,tapes,-30.6733,-51.3958,293.17,94,43,1.54,BR,1701330492
359,magadan,59.5667,150.8,257.27,87,53,2.01,RU,1701330492
360,lovington,32.944,-103.3485,278.62,97,69,0.45,US,1701330492
361,antalaha,-14.9003,50.2788,302.16,69,40,4.29,MG,1701330492
362,tosontsengel,48.7567,98.2839,256.38,83,0,1.35,MN,1701330493
363,santana,-0.0583,-51.1817,299.25,89,75,1.03,BR,1701330493
364,tver,56.8619,35.8931,270.53,93,100,7.15,RU,1701330493
365,adrian,41.8975,-84.0372,274.92,87,0,2.06,US,1701330480
366,dickinson,29.4608,-95.0513,291.5,88,75,4.63,US,1701330493
367,brookings,44.3114,-96.7984,272.1,77,0,1.54,US,1701330493
368,kongsvinger,60.1905,11.9977,270.52,95,88,2.7,NO,1701330262
369,prince george,53.9166,-122.753,270.84,86,100,0.0,CA,1701330311
370,nova xavantina,-14.6667,-52.35,297.76,57,38,1.59,BR,1701330494
371,kavieng,-2.5744,150.7967,302.14,74,95,3.85,PG,1701330494
372,new richmond,45.123,-92.5366,274.23,86,0,2.57,US,1701330458
373,ramshir,30.8946,49.4092,289.07,38,0,3.81,IR,1701330494
374,trairi,-3.2778,-39.2689,299.68,77,93,3.18,BR,1701330393
375,cidreira,-30.1811,-50.2056,293.46,95,6,3.31,BR,1701330495
376,limon,10.0,-83.0333,297.07,85,100,1.64,CR,1701330495
377,nova vicosa,-17.8919,-39.3719,296.68,90,70,4.03,BR,1701330495
378,zhangye,38.9342,100.4517,276.64,25,0,0.91,CN,1701330495
379,kruisfontein,-34.0033,24.7314,298.65,20,99,6.69,ZA,1701330495
380,selizharovo,56.8519,33.4487,270.32,94,100,4.36,RU,1701330496
381,nioki,-2.7167,17.6833,300.41,63,98,1.49,CD,1701330496
382,suntar,62.1444,117.6319,259.36,85,100,5.89,RU,1701330496
383,baotou,40.6522,109.8222,268.8,28,0,6.11,CN,1701330496
384,ende,-8.8432,121.6623,302.3,78,92,1.2,ID,1701330496
385,caleta de carquin,-11.0925,-77.6267,292.07,87,98,3.07,PE,1701330496
386,kaoma,-14.7833,24.8,295.95,75,100,3.1,ZM,1701330497
387,eyl,7.9803,49.8164,304.17,45,68,10.44,SO,1701330497
388,tshela,-4.9833,12.9333,300.45,80,94,0.32,CD,1701330497
389,bonthe,7.5264,-12.505,298.58,87,99,1.62,SL,1701330497
390,grimstad,58.3405,8.5934,270.1,78,85,8.48,NO,1701330498
391,derzhavinsk,51.1,66.3167,270.9,91,100,10.4,KZ,1701330498
392,cabedelo,-6.9811,-34.8339,297.52,79,11,4.17,BR,1701330498
393,teknaf,20.8624,92.3058,301.6,54,67,3.79,BD,1701330498
394,fuyuan,46.4333,127.0833,257.34,95,66,2.97,CN,1701330498
395,billigheim,49.3486,9.2539,274.63,83,100,1.37,DE,1701330499
396,sisimiut,66.9395,-53.6735,273.16,96,100,1.74,GL,1701330499
397,mermoz boabab,14.7065,-17.4758,297.03,88,0,2.06,SN,1701330499
398,agat village,13.3886,144.6585,303.68,81,40,7.2,GU,1701330499
399,manado,1.487,124.8455,301.58,78,40,2.06,ID,1701330499
400,jumla,29.2747,82.1838,287.13,25,60,2.64,NP,1701330499
401,bay city,43.5945,-83.8889,273.21,88,0,5.66,US,1701330500
402,dois vizinhos,-25.7336,-53.0572,292.76,98,8,1.11,BR,1701330500
403,lisala,2.15,21.5167,297.44,79,100,1.43,CD,1701330500
404,bunawan,8.1667,126.0833,300.19,80,100,1.17,PH,1701330500
405,hinton,53.4001,-117.5857,260.94,96,45,1.95,CA,1701330501
406,pont rouge,48.8833,-72.0825,270.31,85,100,5.68,CA,1701330501
407,grambling,32.5276,-92.714,278.11,75,0,0.0,US,1701330501
408,letlhakeng,-24.0944,25.0298,301.23,41,5,7.22,BW,1701330501
409,tyukalinsk,55.8732,72.1967,270.27,91,100,2.15,RU,1701330501
410,santa elena de uairen,4.6167,-61.1333,291.52,87,100,2.05,VE,1701330501
411,albert,50.0009,2.651,278.03,98,75,2.06,FR,1701330502
412,cooper's town,26.8667,-77.5167,295.56,58,5,5.54,BS,1701330502
413,gua musang,4.8823,101.9644,301.83,84,77,1.69,MY,1701330502
414,tortoli,39.9256,9.6572,291.05,77,40,8.23,IT,1701330502
415,chiredzi,-21.05,31.6667,292.5,74,100,4.1,ZW,1701330503
416,madang,-5.2246,145.7966,300.73,82,97,1.57,PG,1701330503
417,prince rupert,54.3161,-130.3201,280.98,77,100,9.26,CA,1701330503
418,grand gaube,-20.0064,57.6608,302.37,70,0,1.79,MU,1701330503
419,tazovsky,67.4667,78.7,252.3,97,7,3.3,RU,1701330503
420,nabire,-3.3667,135.4833,300.98,83,99,0.96,ID,1701330504
421,panchgani,17.9167,73.8167,299.46,41,5,3.59,IN,1701330504
422,yaren,-0.5472,166.916,300.96,78,100,7.55,NR,1701330504
423,muromtsevo,56.3724,75.2418,269.54,90,94,1.81,RU,1701330504
424,mangrol,21.1167,70.1167,300.63,42,0,2.58,IN,1701330504
425,bardai,11.65,7.2333,299.43,21,23,5.28,NG,1701330504
426,al jubayl,27.0112,49.6583,294.99,47,98,8.7,SA,1701330505
427,new norfolk,-42.7826,147.0587,288.66,77,89,2.17,AU,1701330505
428,igarka,67.4667,86.5833,248.24,97,19,3.21,RU,1701330505
429,vanimo,-2.6741,141.3028,301.22,82,100,2.9,PG,1701330505
430,chengde,40.9725,117.9361,268.46,31,0,4.68,CN,1701330389
431,kununurra,-15.7667,128.7333,313.14,29,55,1.54,AU,1701330506
432,akrehamn,59.2667,5.1833,273.15,63,0,3.6,NO,1701330506
433,tofol,5.3248,163.0078,300.97,78,100,5.91,FM,1701330506
434,kanuru,16.2858,81.2546,301.16,66,39,6.66,IN,1701330506
435,nuuk,64.1835,-51.7216,275.49,87,75,7.72,GL,1701330506
436,kavaratti,10.5669,72.642,301.94,71,69,2.68,IN,1701330507
437,parabel',58.6978,81.4825,261.99,93,47,2.68,RU,1701330507
438,jackson,42.4165,-122.8345,277.51,81,100,0.0,US,1701330453
439,manismata,-2.4667,111.0333,303.55,77,92,1.39,ID,1701330507
440,oliver,49.1831,-119.5524,275.1,60,33,2.06,CA,1701330507
441,puerto baquerizo moreno,-0.9,-89.6,297.03,79,29,3.55,EC,1701330507
442,dakoro,14.5106,6.765,301.3,15,97,5.73,NE,1701330508
443,taro,-8.3862,115.28,301.15,88,97,1.26,ID,1701330508
444,the pas,53.8251,-101.2541,261.16,79,100,4.12,CA,1701330508
445,sandnessjoen,66.0217,12.6316,270.21,50,0,3.09,NO,1701330508
446,charo,19.75,-101.05,285.66,100,100,0.0,MX,1701330509
447,huarmey,-10.0681,-78.1522,292.35,88,100,2.84,PE,1701330509
448,smolensk,55.0,33.0,267.96,94,100,5.06,RU,1701330415
449,queenstown,-31.8976,26.8753,294.58,20,16,1.74,ZA,1701330314
450,tuba city,36.135,-111.2399,276.14,83,100,3.58,US,1701330509
451,nosy varika,-20.5833,48.5333,302.99,68,9,5.6,MG,1701330510
452,suzun,53.7841,82.3116,275.68,63,100,2.81,RU,1701330510
453,bodaybo,57.8506,114.1933,250.35,100,91,0.77,RU,1701330510
454,mumford,5.2618,-0.759,300.17,83,99,2.42,GH,1701330510
455,andergrove,-21.0833,149.1833,300.33,81,40,6.74,AU,1701330510
456,jaguey grande,22.5269,-81.1286,293.36,86,59,2.41,CU,1701330511
457,guaxupe,-21.3053,-46.7128,290.59,96,68,0.86,BR,1701330511
458,mangaratiba,-22.9597,-44.0406,297.63,84,0,2.02,BR,1701330511
459,hasparren,43.3838,-1.305,285.97,87,100,2.06,FR,1701330511
460,tuni,17.35,82.55,303.07,48,15,5.61,IN,1701330511
461,fortuna,40.5982,-124.1573,279.25,92,0,0.0,US,1701330512
462,tumayr,25.7039,45.868,293.12,34,1,2.34,SA,1701330512
463,vernon,50.2581,-119.2691,273.57,69,100,1.54,CA,1701330512
464,san felipe,10.3399,-68.7425,295.87,92,100,1.18,VE,1701330512
465,makinsk,52.6292,70.4169,271.48,82,100,8.62,KZ,1701330512
466,el bayadh,33.6832,1.0193,284.2,23,14,3.32,DZ,1701330512
467,dazhou,31.2159,107.5009,282.0,83,100,3.34,CN,1701330513
468,guerrero negro,27.9769,-114.0611,290.99,61,37,7.71,MX,1701330513
469,kill devil hills,36.0307,-75.676,278.14,62,0,1.54,US,1701330407
470,khanty-mansiysk,61.0042,69.0019,259.21,78,0,2.0,RU,1701330513
471,zeya,53.75,127.2667,261.2,48,12,1.75,RU,1701330514
472,labuan,5.2767,115.2417,305.35,62,20,3.09,MY,1701330514
473,okhotsk,59.3833,143.3,255.13,83,79,4.37,RU,1701330514
474,touros,-5.1989,-35.4608,298.73,84,100,5.47,BR,1701330514
475,bratsk,56.1325,101.6142,261.42,92,98,3.15,RU,1701330366
476,honiara,-9.4333,159.95,300.27,91,99,2.93,SB,1701330400
477,acarau,-2.8856,-40.12,299.42,78,68,4.95,BR,1701330515
478,ascension,30.2169,-90.9001,283.75,81,0,0.0,US,1701330515
479,chos malal,-37.3781,-70.2709,288.7,45,0,0.46,AR,1701330515
480,puerto de la cruz,28.414,-16.5487,294.01,77,27,1.79,ES,1701330515
481,taltal,-25.4,-70.4833,288.67,84,93,1.19,CL,1701330515
482,kingscliff,-28.2667,153.5667,305.04,29,95,5.14,AU,1701330516
483,pacific grove,36.6177,-121.9166,285.97,89,20,2.06,US,1701330295
484,labrador city,52.9463,-66.9114,244.1,76,0,1.54,CA,1701330516
485,puerto armuelles,8.2833,-82.8667,300.42,86,69,2.24,PA,1701330516
486,tevriz,57.509,72.4042,269.19,86,100,1.61,RU,1701330516
487,kayyerkan,69.3786,87.7439,252.16,99,96,0.48,RU,1701330516
488,sillamae,59.3997,27.7547,271.86,87,100,7.42,EE,1701330517
489,greymouth,-42.4667,171.2,284.35,82,100,2.71,NZ,1701330517
490,aromashevo,56.8602,68.6375,270.2,85,100,2.79,RU,1701330517
491,vilaka,57.1846,27.6722,270.48,97,100,2.64,LV,1701330517
492,axim,4.8699,-2.2405,300.47,80,71,0.92,GH,1701330517
493,newman,37.3138,-121.0208,284.29,88,92,1.21,US,1701330517
494,cam ranh,11.9214,109.1591,302.13,79,75,7.2,VN,1701330518
495,dalandzadgad,43.5708,104.425,265.99,53,0,2.23,MN,1701330518
496,nemuro,43.3236,145.575,272.28,47,40,7.96,JP,1701330518
497,kita,13.0349,-9.4895,298.17,24,61,0.9,ML,1701330518
498,machico,32.7,-16.7667,294.1,83,75,9.77,PT,1701330518
499,arteche,12.2645,125.4048,299.84,90,100,3.53,PH,1701330519
500,salekhard,66.53,66.6019,255.37,96,18,4.49,RU,1701330519
501,grenade,37.25,-3.25,284.98,86,70,2.87,ES,1701330519
502,wauseon,41.5492,-84.1416,273.96,96,0,3.6,US,1701330519
503,shiprock,36.7855,-108.687,274.34,51,100,0.98,US,1701330519
504,bogo,11.0517,124.0055,302.07,74,90,2.27,PH,1701330520
505,vila franca do campo,37.7167,-25.4333,290.31,99,100,11.93,PT,1701330520
506,sao gabriel da cachoeira,-0.1303,-67.0892,295.72,99,97,0.79,BR,1701330520
507,lospalos,-8.5186,127.0025,301.8,59,17,3.88,TL,1701330520
508,farafangana,-22.8167,47.8333,302.55,68,56,2.34,MG,1701330520
509,tangjiazhuang,39.7333,118.45,272.11,19,0,2.48,CN,1701330520
510,bakanas,44.8081,76.2772,279.7,83,100,3.84,KZ,1701330521
511,tralee,52.2704,-9.7026,274.03,87,8,5.01,IE,1701330521
512,mogadishu,2.0371,45.3438,304.08,66,0,5.14,SO,1701330419
513,nouadhibou,20.931,-17.0347,291.14,88,100,1.54,MR,1701330521
514,narrabri,-30.3167,149.7833,301.77,33,65,0.89,AU,1701330521
515,gereida,11.2811,25.1414,303.18,17,73,8.32,SD,1701330521
516,saudarkrokur,65.7461,-19.6394,273.46,82,61,2.03,IS,1701330521
517,doraha,30.8167,76.0167,290.14,94,75,1.03,IN,1701330521
518,santa cruz,-17.8,-63.1667,297.85,88,20,4.63,BO,1701330454
519,thulamahashi,-24.7246,31.1994,296.14,48,59,5.66,ZA,1701330522
520,taza,34.25,-3.75,286.22,63,100,3.1,MA,1701330522
521,burutu,5.3509,5.5076,301.72,75,8,0.68,NG,1701330522
522,carutapera,-1.195,-46.02,298.47,82,0,2.53,BR,1701330522
523,deir ez-zor,35.3359,40.1408,287.96,40,52,2.3,SY,1701330244
524,timbuktu,16.7735,-3.0074,296.79,13,30,3.9,ML,1701330522
525,havre,49.5833,0.3333,276.02,93,41,2.57,FR,1701330523
526,roma,43.2128,-75.4557,272.44,68,100,2.24,US,1701330523
527,camana,-16.6228,-72.7111,291.97,85,100,2.34,PE,1701330523
528,recreo,-29.2818,-65.061,292.53,88,100,0.91,AR,1701330523
529,coxen hole,16.3244,-86.5366,300.23,75,17,5.91,HN,1701330523
530,turar ryskulov,42.5333,70.3333,279.51,91,100,1.87,KZ,1701330523
531,tsiombe,-25.3,45.4833,307.86,34,61,3.58,MG,1701330524
532,stettler,52.3168,-112.7186,263.01,100,11,3.09,CA,1701330524
533,ta`u,-14.2336,-169.5144,300.85,83,38,8.84,AS,1701330524
534,energetik,51.7445,58.7934,270.77,64,99,8.46,RU,1701330524
535,batie,9.8833,-2.9167,301.99,55,13,1.86,BF,1701330524
536,vostochnyy,55.8167,37.8667,273.25,93,100,4.6,RU,1701330524
537,mitu,1.1983,-70.1733,295.05,99,100,0.82,CO,1701330524
538,nikolayevsk-on-amure,53.1406,140.73,255.24,89,7,2.27,RU,1701330524
539,kuanda,56.3161,116.0806,250.35,96,91,0.41,RU,1701330525
540,raja,8.4596,25.678,304.14,24,72,2.71,SS,1701330525
541,amursk,50.2261,136.8994,251.46,95,71,4.1,RU,1701330525
542,purpe,64.4803,76.6897,267.61,96,100,4.88,RU,1701330525
543,puqi,29.7167,113.8833,280.22,49,100,3.56,CN,1701330525
544,bobrov,51.0961,40.0333,273.83,73,100,5.93,RU,1701330525
545,al ahmadi,29.0769,48.0839,291.57,46,0,6.53,KW,1701330526
546,al mishkhab,31.8042,44.4911,291.76,33,0,5.07,IQ,1701330526
547,twentynine palms,34.1356,-116.0542,285.36,57,0,1.34,US,1701330526
548,taoudenni,22.6783,-3.9836,292.42,15,0,2.19,ML,1701330526
549,male,4.1748,73.5089,305.12,74,40,2.06,MV,1701330526
550,walvis bay,-22.9575,14.5053,292.64,80,80,4.0,NA,1701330527
551,kalmunai,7.4167,81.8167,300.08,84,100,4.49,LK,1701330527
552,black river,18.0264,-77.8487,296.82,86,44,2.13,JM,1701330527
553,oued zem,32.8627,-6.5736,284.83,56,100,1.0,MA,1701330527
554,el bauga,18.262,33.9081,302.98,39,7,5.78,SD,1701330527
555,vila velha,-20.3297,-40.2925,298.12,88,0,4.63,BR,1701330457
556,shache,38.4167,77.2406,281.06,20,100,2.25,CN,1701330527
557,ulladulla,-35.35,150.4667,292.46,83,84,3.79,AU,1701330527
558,mount pearl,47.5166,-52.7813,271.46,92,100,6.69,CA,1701330527
559,tocopilla,-22.092,-70.1979,291.43,74,80,1.79,CL,1701330433
560,lubango,-14.9172,13.4925,290.22,92,100,0.6,AO,1701330528
561,lauro de freitas,-12.8944,-38.3272,297.16,83,75,1.54,BR,1701330313
562,black point,-34.6187,137.8972,292.22,65,8,9.38,AU,1701330528
563,gewane,10.1664,40.6453,301.9,26,98,2.84,ET,1701330528
564,kudahuvadhoo,2.6708,72.8944,301.34,72,58,2.24,MV,1701330528
565,mancora,-4.1078,-81.0475,296.03,71,88,2.31,PE,1701330528
566,revda,56.801,59.9303,268.72,89,100,2.72,RU,1701330529
567,mantua,45.1667,10.7833,278.74,91,100,1.34,IT,1701330375
568,alofi,-19.0595,-169.9187,298.09,88,88,2.57,NU,1701330529
569,belonia,23.2528,91.4514,300.61,55,6,2.51,IN,1701330529
570,kasongo-lunda,-6.4667,16.8167,299.77,70,87,1.24,CD,1701330529
571,i-n-salah,27.1935,2.4607,291.57,19,0,1.62,DZ,1701330529
572,beja,36.7256,9.1817,291.07,55,0,2.2,TN,1701330357
